     2.11           OBSERVATION DATA    Mixed(MIXED)        RINEX VERSION / TYPE
cnvtToRINEX 3.14.0  convertToRINEX OPR  20230929 165904 UTC PGM / RUN BY / DATE 
----------------------------------------------------------- COMMENT             
base                                                        MARKER NAME         
                                                            MARKER NUMBER       
GNSS Observer       Trimble                                 OBSERVER / AGENCY   
5450487277          TRIMBLE R10         5.22                REC # / TYPE / VERS 
                    TRMR10          NONE                    ANT # / TYPE        
 -2718365.1939 -4311931.9269  3820944.5648                  APPROX POSITION XYZ 
        1.5550        0.0000        0.0000                  ANTENNA: DELTA H/E/N
     1     1     0                                          WAVELENGTH FACT L1/2
     5    C1    C2    L1    L2    P2                        # / TYPES OF OBSERV 
    15.000                                                  INTERVAL            
  2023     9    22    15    45   30.0000000     GPS         TIME OF FIRST OBS   
  2023     9    22    21    34   45.0000000     GPS         TIME OF LAST OBS    
     0                                                      RCV CLOCK OFFS APPL 
    18                                                      LEAP SECONDS        
    32                                                      # OF SATELLITES     
   G02   924     0   924   915   915                        PRN / # OF OBS      
   G03   450   450   450   900   450                        PRN / # OF OBS      
   G04   268   268   268   528   260                        PRN / # OF OBS      
   G08   934   934   934  1868   934                        PRN / # OF OBS      
   G10  1280  1280  1280  2560  1280                        PRN / # OF OBS      
   G13    32     0    32     0     0                        PRN / # OF OBS      
   G15   338   338   338   676   338                        PRN / # OF OBS      
   G16   290     0   290   263   263                        PRN / # OF OBS      
   G18   672   672   672  1344   672                        PRN / # OF OBS      
   G21  1026     0  1026  1003  1003                        PRN / # OF OBS      
   G23   856   856   856  1712   856                        PRN / # OF OBS      
   G24   500   500   500  1000   500                        PRN / # OF OBS      
   G26   262   262   262   523   261                        PRN / # OF OBS      
   G27   930   928   929  1856   928                        PRN / # OF OBS      
   G28   838   838   838  1676   838                        PRN / # OF OBS      
   G29   160   160   160   320   160                        PRN / # OF OBS      
   G31   636   635   635  1270   635                        PRN / # OF OBS      
   G32  1358  1358  1358  2716  1358                        PRN / # OF OBS      
   R01  1074  1062  1074  1560   530                        PRN / # OF OBS      
   R02   582   581   581  1156   576                        PRN / # OF OBS      
   R06   318     0   318     0     0                        PRN / # OF OBS      
   R07   758   758   758  1419   673                        PRN / # OF OBS      
   R08  1248  1248  1248  2398  1164                        PRN / # OF OBS      
   R10   536     0   536     0     0                        PRN / # OF OBS      
   R11   488   488   488   974   486                        PRN / # OF OBS      
   R12   236   236   236   469   233                        PRN / # OF OBS      
   R17   542   541   542   982   450                        PRN / # OF OBS      
   R18   164   162   164   261   104                        PRN / # OF OBS      
   R21   424   424   424   845   422                        PRN / # OF OBS      
   R22   800   800   800  1596   796                        PRN / # OF OBS      
   R23  1160     0  1159     0     0                        PRN / # OF OBS      
   R24   962   960   962  1843   891                        PRN / # OF OBS      
CARRIER PHASE MEASUREMENTS: PHASE SHIFTS REMOVED            COMMENT             
                                                            END OF HEADER       
 23  9 22 15 45 30.0000000  0 15G10G13G15G16G18G23G26G27G29R06R07R08
                                R21R22R23
  21666551.359 6  21666558.055 8 113858504.78416  88720944.67218  21666559.40248
  24159365.195 4                 126958315.43014                
  21651163.383 6  21651167.832 7 113777631.27316  88657910.46217  21651168.59447
  23349849.172 5                 122704261.39415  95613745.70955  23349855.42245
  20839154.953 6  20839159.941 8 109510497.33416  85332873.90118  20839160.14147
  20334981.086 7  20334985.773 8 106861048.67017  83268397.88818  20334986.07447
  24043781.313 3  24043791.719 8 126350903.09313  98455290.40018  24043792.62146
  22594992.391 5  22595000.371 8 118737489.55315  92522742.10418  22595000.14147
  23197974.750 6  23197982.039 7 121906171.05916  94991818.71017  23197982.34847
  20428743.273 5                 109011681.17615                
  19437618.313 7  19437623.090 7 104051100.05517  80928645.20617  19437622.473 7
  22355355.133 5  22355361.359 7 119711920.65315  93109308.31517  22355361.875 6
  20288860.023 7  20288864.254 7 108569832.30417  84443210.89617  20288864.660 6
  19938702.531 8  19938706.707 7 106434150.66718  82782198.45417  19938706.504 7
  23608792.109 4                 126291112.77614                
 23  9 22 15 45 45.0000000  0 15G10G13G15G16G18G23G26G27G29R06R07R08
                                R21R22R23
  21656608.414 7  21656615.242 8 113806255.189 7  88680230.719 8  21656616.46548
  24161722.727 5                 126970701.348 5                
  21650696.492 6  21650701.172 7 113775177.665 6  88655998.540 7  21650701.86747
  23348833.289 5                 122698922.800 5  95609585.70045  23348839.46145
  20835643.766 6  20835648.762 8 109492046.997 6  85318497.010 8  20835648.97746
  20330636.602 7  20330641.074 8 106838218.488 7  83250608.123 8  20330641.68047
  24045727.836 4  24045737.539 8 126361130.269 4  98463259.572 8  24045738.59046
  22582307.875 5  22582315.379 7 118670829.446 5  92470799.174 7  22582315.71547
  23202923.336 6  23202929.703 7 121932176.156 6  95012082.375 7  23202930.62547
  20431102.203 5                 109024268.053 5                
  19428623.789 7  19428627.434 7 104002952.784 7  80891197.338 7  19428627.871 7
  22338933.961 5  22338941.160 7 119623989.640 5  93040917.565 7  22338941.438 6
  20287653.563 7  20287658.570 7 108563375.853 7  84438189.205 7  20287658.273 7
  19929225.211 8  19929230.059 7 106383559.233 8  82742849.564 7  19929228.977 7
  23594261.953 4                 126213393.934 4                
 23  9 22 15 46  0.0000000  0 15G10G13G15G16G18G23G26G27G29R06R07R08
                                R21R22R23
  21646680.047 7  21646686.781 8 113754080.133 7  88639574.833 8  21646688.05548
  24164099.094 4                 126983189.789 4                
  21650257.242 6  21650261.672 7 113772865.789 6  88654197.054 7  21650261.99247
  23347839.281 5                 122693695.218 5  95605512.20345  23347844.94145
  20832143.273 6  20832148.688 8 109473652.732 6  85304163.792 8  20832148.87947
  20326308.914 7  20326313.422 8 106815477.966 7  83232888.227 8  20326314.14147
  24047680.750 4  24047691.355 8 126371393.604 4  98471256.911 8  24047691.80546
  22569637.492 5  22569645.391 8 118604247.946 5  92418917.484 8  22569645.16447
  23207882.227 6  23207889.398 7 121958235.639 6  95032388.399 7  23207890.19947
  20433487.438 5                 109036991.723 5                
  19419663.180 8  19419668.445 7 103954984.682 8  80853888.818 7  19419667.355 7
  22322526.203 5  22322532.402 7 119536122.386 5  92972576.392 7  22322532.684 6
  20286466.352 7  20286470.793 7 108557023.696 7  84433248.615 7  20286471.555 7
  19919760.656 8  19919765.063 7 106333037.136 8  82703554.599 7  19919765.164 7
  23579729.055 5                 126135647.974 5                
 23  9 22 15 46 15.0000000  0 15G10G13G15G16G18G23G26G27G29R06R07R08
                                R21R22R23
  21636765.422 7  21636772.230 8 113701978.816 7  88598976.407 8  21636773.03548
  24166495.078 5                 126995779.640 5                
  21649843.531 6  21649848.039 7 113770694.790 6  88652505.341 7  21649848.80947
  23346865.359 5                 122688577.441 5  95601524.27645  23346870.87945
  20828653.672 6  20828658.129 8 109455313.971 6  85289873.836 8  20828658.76646
  20321998.789 7  20322003.465 8 106792826.301 7  83215237.572 8  20322004.17247
  24049640.914 4  24049650.805 8 126381692.019 4  98479281.596 8  24049651.21947
  22556983.414 5  22556990.828 8 118537744.740 5  92367096.800 8  22556991.48447
  23212851.422 5  23212859.848 7 121984348.611 5  95052736.104 7  23212859.24647
  20435897.898 4                 109049851.210 4                
  19410735.320 7  19410740.383 7 103907195.410 7  80816719.388 7  19410740.000 7
  22306129.000 5  22306135.840 7 119448318.542 5  92904284.562 7  22306136.121 6
  20285299.242 7  20285302.906 7 108550775.120 7  84428388.588 7  20285303.430 6
  19910309.977 7  19910313.410 7 106282583.906 7  82664313.205 7  19910313.504 7
  23565190.039 4                 126057874.629 4                
 23  9 22 15 46 30.0000000  0 15G10G13G15G16G18G23G26G27G29R06R07R08
                                R21R22R23
  21626864.727 7  21626871.762 8 113649950.576 7  88558434.938 8  21626872.72748
  24168909.914 5                 127008469.993 5                
  21649457.328 6  21649462.191 7 113768663.889 6  88650922.796 7  21649462.53547
  23345911.445 5                 122683568.834 5  95597621.41245  23345918.12945
  20825174.313 6  20825179.230 8 109437030.094 6  85275626.637 8  20825179.53546
  20317704.820 7  20317709.438 8 106770262.675 7  83197655.505 8  20317710.23847
  24051606.742 3  24051617.574 8 126392024.522 3  98487332.850 8  24051618.13746
  22544342.930 5  22544350.477 8 118471319.511 5  92315336.881 8  22544350.90247
  23217830.742 5  23217838.535 7 122010514.171 5  95073124.789 7  23217839.05947
  20438330.922 4                 109062845.164 4                
  19401840.836 7  19401846.469 7 103859584.202 7  80779688.456 7  19401845.496 7
  22289744.305 5  22289750.172 7 119360578.067 5  92836041.995 7  22289750.566 6
  20284150.906 7  20284155.109 7 108544629.789 7  84423608.847 7  20284155.168 7
  19900870.273 7  19900874.070 7 106232199.125 7  82625125.055 7  19900873.848 7
  23550645.789 3                 125980073.490 3                
 23  9 22 15 46 45.0000000  0 15G10G13G15G16G18G23G26G27G29R06R07R08
                                R21R22R23
  21616978.031 7  21616985.246 8 113597995.418 7  88517950.411 8  21616985.91448
  24171344.016 5                 127021260.543 5                
  21649097.289 6  21649102.527 7 113766772.814 6  88649449.187 7  21649103.02747
  23344979.156 5                 122678668.950 5  95593803.18745  23344985.69145
  20821705.547 6  20821709.668 8 109418801.101 6  85261422.205 8  20821710.33646
  20313427.938 6  20313432.637 8 106747786.862 6  83180141.876 8  20313433.33247
  24053578.602 3  24053589.617 8 126402390.632 3  98495410.257 8  24053590.64846
  22531717.406 5  22531725.113 8 118404972.410 5  92263637.836 8  22531724.99247
  23222819.969 5  23222827.785 8 122036731.914 5  95093554.130 8  23222828.09447
  20440792.281 4                 109075973.294 4                
  19392980.563 7  19392984.691 7 103812151.121 7  80742796.066 7  19392984.426 7
  22273370.117 5  22273377.078 7 119272900.977 5  92767848.749 7  22273377.473 6
  20283020.977 7  20283025.496 7 108538587.540 7  84418909.303 7  20283025.902 6
  19891444.500 7  19891448.508 7 106181883.085 7  82585990.355 7  19891447.969 7
  23536097.453 4                 125902244.501 4                
 23  9 22 15 47  0.0000000  0 15G10G13G15G16G18G23G26G27G29R06R07R08
                                R21R22R23
  21607104.789 7  21607112.176 8 113546113.455 7  88477522.918 8  21607113.20348
  24173796.711 5                 127034151.115 5                
  21648763.695 6  21648768.984 7 113765021.574 6  88648084.563 7  21648769.69147
  23344067.852 5                 122673877.665 5  95590069.75845  23344073.84045
  20818247.266 6  20818252.094 8 109400627.226 6  85247260.727 8  20818252.53947
  20309167.742 7  20309171.801 8 106725398.922 7  83162696.725 8  20309172.26247
  24055557.805 3  24055569.527 8 126412790.204 3  98503513.763 8  24055569.89546
  22519107.477 5  22519114.539 8 118338704.026 5  92212000.145 8  22519115.12547
  23227818.531 6  23227826.527 7 122063001.820 6  95114024.124 7  23227827.12147
  20443277.867 4                 109089235.164 4                
  19384152.625 7  19384157.422 7 103764896.535 7  80706042.504 7  19384157.156 7
  22257010.383 5  22257015.320 7 119185287.985 5  92699705.355 7  22257015.832 6
  20281911.148 7  20281916.672 7 108532648.588 7  84414290.094 7  20281916.375 7
  19882032.016 7  19882035.652 7 106131636.346 7  82546909.536 7  19882035.168 7
  23521541.445 4                 125824388.206 4                
 23  9 22 15 47 15.0000000  0 15G10G13G15G16G18G23G26G27G29R06R07R08
                                R21R22R23
  21597245.680 7  21597252.691 8 113494302.283 7  88437150.585 8  21597254.02348
  24176268.313 5                 127047138.874 5                
  21648457.156 6  21648462.082 7 113763407.359 6  88646826.696 7  21648462.51647
  23343176.070 5                 122669192.071 5  95586418.54745  23343181.88345
  20814799.328 7  20814803.789 8 109382505.968 7  85233140.237 8  20814804.77046
  20304923.445 7  20304927.527 8 106703096.067 7  83145317.866 8  20304928.14847
  24057542.148 4  24057553.035 7 126423220.239 4  98511640.996 7  24057554.01647
  22506511.172 6  22506519.754 8 118272512.066 6  92160421.982 8  22506519.55147
  23232827.469 5  23232834.801 8 122089321.046 5  95134532.548 8  23232834.92247
  20445787.180 4                 109102627.739 4                
  19375357.672 7  19375362.813 7 103717818.070 7  80669425.924 7  19375362.309 7
  22240660.445 5  22240665.180 7 119097736.887 5  92631610.075 7  22240666.277 6
  20280820.094 7  20280825.609 7 108526810.476 7  84409749.311 7  20280825.547 7
  19872631.234 7  19872634.918 7 106081456.462 7  82507880.734 7  19872634.816 7
  23506982.320 4                 125746501.969 4                
 23  9 22 15 47 30.0000000  0 15G10G13G15G16G18G23G26G27G29R06R07R08
                                R21R22R23
  21587400.273 7  21587406.934 8 113442563.303 7  88396834.500 8  21587408.00448
  24178758.992 5                 127060224.929 5                
  21648175.914 6  21648180.379 7 113761931.423 6  88645676.591 7  21648181.68447
  23342303.945 5                 122664613.225 5  95582850.56245  23342311.09045
  20811361.281 6  20811365.738 8 109364438.875 6  85219061.977 8  20811366.46946
  20300695.977 7  20300700.844 8 106680879.666 7  83128006.386 8  20300701.19547
  24059534.031 4  24059543.934 8 126433681.875 4  98519792.864 8  24059544.87147
  22493929.797 5  22493937.195 8 118206398.289 5  92108904.767 8  22493937.35247
  23237845.109 6  23237852.754 7 122115690.786 6  95155080.326 7  23237853.64147
  20448321.258 4                 109116152.002 4                
  19366596.883 7  19366601.945 7 103670917.227 7  80632947.485 7  19366601.094 7
  22224322.133 5  22224327.746 7 119010249.595 5  92563564.452 7  22224328.145 6
  20279749.039 7  20279753.262 7 108521074.754 7  84405288.174 7  20279753.203 7
  19863243.516 7  19863247.500 7 106031345.341 7  82468905.405 7  19863247.395 7
  23492417.055 2                 125668587.365 2                
 23  9 22 15 47 45.0000000  0 15G10G13G15G16G18G23G26G27G29R06R07R08
                                R21R22R23
  21577568.500 7  21577575.172 8 113390896.532 7  88356574.698 8  21577576.31348
  24181267.570 5                 127073409.010 5                
  21647921.609 6  21647926.383 7 113760593.416 6  88644633.948 7  21647927.23047
  23341453.242 5                 122660141.254 5  95579365.85745  23341459.59045
  20807932.727 6  20807938.211 8 109346425.998 6  85205025.952 8  20807938.60246
  20296484.672 7  20296488.883 8 106658749.591 7  83110762.159 8  20296489.58647
  24061531.023 4  24061541.809 8 126444174.785 4  98527969.114 8  24061542.19947
  22481363.336 5  22481371.355 8 118140363.138 5  92057448.790 8  22481371.80547
  23242872.391 6  23242880.926 7 122142110.790 6  95175667.290 7  23242880.93447
  20450880.430 4                 109129807.501 4                
  19357867.766 7  19357872.887 7 103624194.305 7  80596607.440 7  19357872.387 7
  22207996.422 5  22208003.668 7 118922826.549 5  92495568.799 7  22208003.359 6
  20278695.484 7  20278699.508 7 108515441.506 7  84400906.719 7  20278700.504 7
  19853869.406 7  19853873.855 7 105981303.263 7  82429983.792 7  19853873.449 7
  23477845.969 2                 125590644.917 2                
 23  9 22 15 48  0.0000000  0 15G10G13G15G16G18G23G26G27G29R06R07R08
                                R21R22R23
  21567750.031 7  21567757.168 8 113339301.948 7  88316371.127 8  21567757.72748
  24183794.914 4                 127086690.682 4                
  21647692.984 6  21647698.430 7 113759393.071 6  88643698.592 7  21647699.03147
  23340623.273 5                 122655775.689 5  95575964.07045  23340629.52345
  20804515.789 6  20804521.160 8 109328467.401 6  85191032.223 8  20804521.98047
  20292289.930 7  20292294.648 8 106636705.679 7  83093585.072 8  20292295.33647
  24063533.367 4  24063543.977 8 126454698.564 4  98536169.401 8  24063544.97347
  22468812.250 5  22468820.441 8 118074406.781 5  92006054.243 8  22468820.28547
  23247910.000 6  23247918.199 7 122168580.809 6  95196293.196 7  23247918.62947
  20453463.570 4                 109143593.683 4                
  19349173.359 8  19349179.078 7 103577649.363 8  80560405.822 7  19349177.875 7
  22191682.344 5  22191689.496 7 118835468.284 5  92427623.529 7  22191689.305 6
  20277662.836 7  20277667.809 7 108509910.872 7  84396605.093 7  20277667.160 7
  19844508.391 8  19844511.680 7 105931330.479 8  82391116.079 7  19844511.043 7
  23463271.297 3                 125512674.603 3                
 23  9 22 15 48 15.0000000  0 15G10G13G15G16G18G23G26G27G29R06R07R08
                                R21R22R23
  21557946.508 7  21557953.098 8 113287781.732 7  88276225.519 8  21557953.96548
  24186340.883 4                 127100071.838 4                
  21647491.406 6  21647496.879 7 113758332.619 6  88642872.249 7  21647497.49247
  23339812.891 5                 122651518.520 5  95572646.78745  23339819.82045
  20801108.961 6  20801114.367 8 109310565.319 6  85177082.537 8  20801114.93847
  20288112.039 7  20288116.707 8 106614749.938 7  83076476.690 8  20288117.16447
  24065541.813 5  24065552.906 8 126465255.041 5  98544395.151 8  24065553.48847
  22456277.102 5  22456284.840 8 118008531.776 5  91954723.068 8  22456285.21147
  23252956.898 6  23252965.449 7 122195102.737 6  95216959.561 7  23252965.00447
  20456072.633 4                 109157512.445 4                
  19340512.094 7  19340517.902 7 103531284.601 7  80524344.352 7  19340516.699 7
  22175381.609 5  22175388.348 7 118748177.110 5  92359730.416 7  22175388.512 6
  20276648.945 7  20276651.688 7 108504484.937 7  84392384.890 7  20276652.914 7
  19835159.336 7  19835163.164 7 105881429.423 7  82352304.160 7  19835163.109 7
  23448690.563 3                 125434678.905 3                
 23  9 22 15 48 30.0000000  0 15G10G13G15G16G18G23G26G27G29R06R07R08
                                R21R22R23
  21548156.773 7  21548163.668 8 113236338.180 7  88236139.625 8  21548164.44948
  24188906.125 3                 127113554.308 3                
  21647316.742 6  21647321.598 7 113757414.040 6  88642156.440 7  21647322.85247
  23339023.680 5                 122647371.574 5  95569415.29845  23339030.22745
  20797713.781 6  20797718.379 8 109292722.142 6  85163178.739 8  20797719.21146
  20283951.211 7  20283956.086 8 106592884.515 7  83059438.686 8  20283956.37547
  24067557.313 4  24067567.813 8 126475846.109 4  98552647.882 8  24067568.85547
  22443757.625 5  22443765.637 8 117942740.795 5  91903457.365 8  22443765.36347
  23258014.039 5  23258021.859 7 122221678.508 5  95237667.891 7  23258021.90647
  20458705.328 4                 109171565.478 4                
  19331885.164 7  19331889.938 7 103485102.783 7  80488425.146 7  19331889.316 7
  22159094.813 5  22159101.484 7 118660956.221 5  92291892.028 7  22159100.473 7
  20275655.086 7  20275658.859 7 108499166.379 7  84388248.201 7  20275659.266 7
  19825825.406 7  19825828.574 7 105831602.891 7  82313550.178 7  19825828.566 7
  23434105.617 3                 125356660.388 3                
 23  9 22 15 48 45.0000000  0 15G10G13G15G16G18G23G26G27G29R06R07R08
                                R21R22R23
  21538381.859 7  21538388.527 8 113184971.721 7  88196113.820 8  21538389.69948
  24191490.148 4                 127127138.754 4                
  21647169.328 7  21647173.430 7 113756637.454 7  88641551.267 7  21647174.55147
  23338255.648 5                 122643335.127 5  95566269.99845  23338262.52045
  20794328.969 6  20794334.645 8 109274938.434 6  85149321.292 8  20794335.35247
  20279807.664 7  20279812.617 8 106571109.816 7  83042471.381 8  20279813.37947
  24069579.617 4  24069590.469 8 126486471.964 4  98560927.707 8  24069590.82447
  22431254.016 5  22431262.008 8 117877034.579 5  91852257.707 8  22431261.80547
  23263081.961 6  23263089.441 7 122248308.414 6  95258418.391 7  23263089.87547
  20461363.531 4                 109185753.006 4                
  19323292.148 7  19323297.238 7 103439104.115 7  80452648.425 7  19323296.621 7
  22142818.609 5  22142826.301 7 118573806.268 5  92224108.777 7  22142825.875 7
  20274680.867 7  20274685.305 7 108493955.646 7  84384195.405 7  20274685.945 7
  19816505.820 7  19816509.664 7 105781851.668 7  82274854.785 7  19816509.293 7
  23419516.297 4                 125278619.679 4                
 23  9 22 15 49  0.0000000  0 15G10G13G15G16G18G23G26G27G29R06R07R08
                                R21R22R23
  21528621.797 7  21528628.918 8 113133680.839 7  88156146.912 8  21528629.56648
  24194096.031 3                 127140822.959 3                
  21647048.164 7  21647052.609 8 113756001.093 7  88641055.368 8  21647053.73447
  23337508.570 5                 122639407.271 5  95563209.31045  23337514.86345
  20790956.445 6  20790960.961 8 109257212.625 6  85135508.942 8  20790961.63746
  20275680.930 7  20275685.387 8 106549424.012 7  83025573.337 8  20275685.90247
  24071607.945 4  24071618.324 8 126497130.597 4  98569233.075 8  24071618.73447
  22418766.523 5  22418773.570 8 117811411.897 5  91801123.154 8  22418774.32847
  23268158.945 6  23268167.016 8 122274990.558 6  95279209.617 8  23268167.42247
  20464047.711 5                 109200072.820 5                
  19314733.180 7  19314737.734 7 103393287.506 7  80417013.295 7  19314737.469 7
  22126556.828 5  22126564.180 7 118486726.255 5  92156379.902 7  22126563.988 7
  20273726.828 7  20273731.020 7 108488851.257 7  84380225.297 7  20273731.543 7
  19807199.547 7  19807203.250 7 105732174.340 7  82236216.860 7  19807202.422 7
  23404924.305 3                 125200555.169 3                
 23  9 22 15 49 15.0000000  0 15G10G13G15G16G18G23G26G27G29R06R07R08
                                R21R22R23
  21518875.797 7  21518882.355 8 113082464.704 7  88116238.233 8  21518883.37948
  24196718.328 3                 127154606.010 3                
  21646953.250 7  21646957.898 7 113755504.010 7  88640668.005 7  21646958.51647
  23336781.328 5                 122635586.981 5  95560232.37746  23336787.30546
  20787593.953 6  20787598.969 8 109239544.104 6  85121741.252 8  20787599.78546
  20271571.125 7  20271575.879 8 106527826.309 7  83008743.956 8  20271575.74247
  24073642.313 4  24073652.773 8 126507821.067 4  98577563.226 8  24073653.55947
  22406294.633 5  22406302.621 8 117745872.394 5  91750053.417 8  22406302.84847
  23273246.648 6  23273254.195 7 122301724.108 6  95300040.893 7  23273254.14847
  20466756.266 4                 109214523.727 4                
  19306207.844 8  19306212.590 7 103347652.062 8  80381519.063 7  19306212.324 7
  22110309.211 5  22110315.797 7 118399715.656 5  92088705.041 7  22110315.371 7
  20272792.523 7  20272796.973 7 108483852.522 7  84376337.354 7  20272797.145 7
  19797906.570 7  19797911.184 7 105682570.683 7  82197636.244 7  19797909.969 7
  23390325.680 4                 125122466.396 4                
 23  9 22 15 49 30.0000000  0 15G10G13G15G16G18G23G26G27G29R06R07R08
                                R21R22R23
  21509143.414 7  21509150.395 8 113031322.483 7  88076387.166 8  21509151.37948
  24199359.617 4                 127168486.482 4                
  21646885.000 7  21646890.164 7 113755144.932 7  88640388.174 7  21646890.45347
  23336074.813 5                 122631872.823 5  95557338.15345  23336080.37945
  20784242.625 6  20784247.176 8 109221931.805 6  85108017.356 8  20784248.14846
  20267477.695 7  20267482.066 8 106506315.369 7  82991982.176 8  20267482.50847
  24075682.672 4  24075693.469 8 126518541.658 4  98585916.869 8  24075693.75847
  22393838.789 5  22393846.762 8 117680415.175 5  91699047.781 8  22393847.03947
  23278343.250 6  23278351.051 7 122328507.557 6  95320911.053 7  23278351.11347
  20469488.563 4                 109229104.005 4                
  19297716.078 7  19297721.137 7 103302196.794 7  80346164.961 7  19297720.520 7
  22094072.922 5  22094080.328 7 118312773.710 5  92021083.588 7  22094080.492 7
  20271878.289 7  20271882.965 7 108478958.276 7  84372530.695 7  20271883.141 7
  19788628.156 8  19788631.730 7 105633039.626 8  82159112.076 7  19788631.254 7
  23375723.438 4                 125044352.689 4                
 23  9 22 15 49 45.0000000  0 15G10G13G15G16G18G23G26G27G29R06R07R08
                                R21R22R23
  21499425.984 7  21499433.098 8 112980256.596 7  88036595.564 8  21499433.90648
  24202020.766 4                 127182466.581 4                
  21646843.930 6  21646847.695 7 113754926.364 6  88640217.831 7  21646848.71547
  23335388.938 5                 122628267.185 5  95554528.56845  23335394.98445
  20780901.852 6  20780907.371 8 109204378.462 6  85094339.408 8  20780907.13746
  20263401.406 7  20263406.563 8 106484893.762 7  82975289.999 8  20263406.67247
  24077728.953 4  24077740.336 8 126529294.783 4  98594295.864 8  24077740.61747
  22381398.758 5  22381407.391 8 117615043.260 5  91648108.623 8  22381407.18047
  23283449.852 6  23283457.145 7 122355343.223 6  95341821.894 7  23283458.26647
  20472245.719 4                 109243816.092 4                
  19289258.563 7  19289264.504 7 103256924.509 7  80310953.189 7  19289264.117 7
  22077850.219 5  22077857.301 7 118225903.810 5  91953518.161 7  22077856.992 7
  20270983.758 7  20270988.273 7 108474171.303 7  84368807.462 7  20270988.918 7
  19779363.320 8  19779366.324 7 105583584.377 8  82120646.870 7  19779366.191 7
  23361117.086 5                 124966216.613 5                
 23  9 22 15 50  0.0000000  0 15G10G13G15G16G18G23G26G27G29R06R07R08
                                R21R22R23
  21489723.320 7  21489730.359 8 112929268.306 7  87996864.431 8  21489731.23048
  24204700.789 5                 127196547.079 5                
  21646828.070 6  21646833.086 7 113754848.798 6  88640157.361 7  21646833.87547
  23334723.586 5                 122624770.938 5  95551804.13646  23334730.15246
  20777573.570 6  20777578.516 8 109186885.156 6  85080708.249 8  20777578.92646
  20259341.977 7  20259346.250 8 106463562.336 7  82958668.103 8  20259346.99647
  24079781.883 4  24079792.031 8 126540081.130 4  98602700.746 8  24079792.62947
  22368974.258 5  22368983.746 8 117549757.974 5  91597236.987 8  22368983.96947
  23288566.563 5  23288574.313 7 122382231.951 5  95362774.073 7  23288574.65647
  20475027.719 4                 109258660.478 4                
  19280835.906 8  19280842.215 7 103211836.603 8  80275884.833 7  19280841.598 7
  22061642.188 5  22061649.355 7 118139107.159 5  91886009.705 7  22061648.461 7
  20270110.375 7  20270114.184 7 108469492.996 7  84365168.754 7  20270114.473 7
  19770113.336 7  19770116.441 7 105534206.125 7  82082241.570 7  19770116.180 7
  23346504.469 4                 124888059.521 4                
 23  9 22 15 50 15.0000000  0 15G10G13G15G16G18G23G26G27G29R06R07R08
                                R21R22R23
  21480034.688 7  21480041.938 8 112878355.685 7  87957192.263 8  21480042.84848
  24207398.742 5                 127210726.063 5                
  21646840.109 6  21646845.074 7 113754910.427 6  88640205.358 7  21646845.88347
  23334079.008 5                 122621381.947 5  95549163.36545  23334084.83645
  20774255.734 6  20774260.707 8 109169450.322 6  85067122.644 8  20774261.06346
  20255299.578 7  20255303.738 8 106442319.304 7  82942115.080 8  20255304.36747
  24081840.219 4  24081850.820 8 126550898.696 4  98611129.951 8  24081851.56647
  22356567.672 5  22356575.965 8 117484558.047 5  91546431.863 8  22356576.67247
  23293692.906 5  23293701.434 7 122409171.887 5  95383766.166 7  23293701.01647
  20477834.148 4                 109273634.869 4                
  19272447.578 7  19272454.203 7 103166931.482 7  80240958.628 7  19272452.879 7
  22045446.750 5  22045453.914 7 118052382.537 5  91818557.267 7  22045453.254 7
  20269255.500 7  20269259.320 7 108464921.471 7  84361613.092 7  20269259.961 7
  19760877.313 8  19760880.152 7 105484903.645 8  82043895.192 7  19760880.445 7
  23331891.406 5                 124809879.948 5                
 23  9 22 15 50 30.0000000  0 15G10G13G15G16G18G23G26G27G29R06R07R08
                                R21R22R23
  21470360.820 7  21470367.832 8 112827518.896 7  87917579.185 8  21470369.24648
  24210115.219 4                 127225003.214 4                
  21646878.703 6  21646883.340 7 113755111.245 6  88640361.798 7  21646884.34047
  23333453.555 5                 122618100.205 5  95546606.10545  23333460.17245
  20770949.531 6  20770954.422 8 109152074.096 6  85053582.710 8  20770954.50446
  20251274.008 6  20251278.582 8 106421164.568 6  82925630.862 8  20251278.90647
  24083904.539 4  24083914.883 8 126561747.110 4  98619583.207 8  24083915.58247
  22344177.461 5  22344184.891 8 117419443.806 5  91495693.496 8  22344185.30948
  23298829.578 5  23298836.824 7 122436162.758 5  95404797.936 7  23298837.42647
  20480664.133 4                 109288739.162 4                
  19264092.656 8  19264099.164 7 103122208.937 8  80206174.442 7  19264098.313 7
  22029265.992 5  22029271.945 7 117965730.788 5  91751161.511 7  22029271.168 7
  20268421.188 7  20268425.844 7 108460457.019 7  84358140.734 7  20268425.664 7
  19751655.500 8  19751658.902 7 105435677.250 8  82005607.991 7  19751658.633 7
  23317271.469 5                 124731678.450 5                
 23  9 22 15 50 45.0000000  0 15G10G13G15G16G18G23G26G27G29R06R07R08
                                R21R22R23
  21460701.672 7  21460708.527 8 112776758.824 7  87878025.889 8  21460709.68848
  24212851.102 5                 127239379.093 5                
  21646943.609 7  21646949.063 7 113755451.896 7  88640627.215 7  21646949.30947
  23332850.508 5                 122614926.231 5  95544132.86245  23332856.58245
  20767653.977 6  20767658.930 8 109134757.480 6  85040089.216 8  20767659.37546
  20247264.922 7  20247270.148 8 106400098.937 7  82909216.078 8  20247270.28147
  24085975.250 4  24085985.543 8 126572627.021 4  98628060.992 8  24085985.89847
  22331802.828 6  22331811.066 8 117354416.597 6  91445022.944 8  22331811.40647
  23303975.977 5  23303983.500 7 122463205.322 5  95425869.993 7  23303983.76647
  20483519.031 5                 109303973.676 5                
  19255772.969 8  19255777.945 7 103077670.425 8  80171533.373 7  19255777.625 7
  22013096.625 6  22013104.746 7 117879153.087 6  91683823.352 7  22013104.086 7
  20267606.547 7  20267611.281 7 108456100.577 7  84354752.359 7  20267611.574 7
  19742447.906 8  19742450.719 7 105386528.229 8  81967380.975 7  19742451.086 7
  23302649.211 5                 124653455.790 5                
 23  9 22 15 51  0.0000000  0 15G10G13G15G16G18G23G26G27G29R06R07R08
                                R21R22R23
  21451056.648 7  21451063.871 8 112726075.062 7  87838532.050 8  21451064.93048
  24215605.734 5                 127253853.083 5                
  21647034.625 6  21647040.012 7 113755931.648 6  88641001.024 7  21647040.59047
  23332266.805 5                 122611859.330 5  95541743.04645  23332273.09845
  20764370.281 6  20764375.254 8 109117500.045 6  85026641.849 8  20764376.12546
  20243273.344 6  20243277.914 8 106379121.756 6  82892870.219 8  20243278.42647
  24088051.273 5  24088062.297 8 126583536.56415  98636569.66318
  22319445.289 5  22319453.309 8 117289476.151 5  91394420.020 8  22319453.48847
  23309131.172 6  23309138.309 7 122490298.789 6  95446981.723 7  23309138.94147
  20486399.898 4                 109319337.353 4                
  19247487.211 7  19247491.926 7 103033315.648 7  80137035.220 7  19247491.758 7
  21996943.367 5  21996950.242 7 117792648.936 5  91616542.389 7  21996950.285 7
  20266813.125 7  20266817.586 7 108451851.790 7  84351447.707 7  20266818.230 7
  19733255.453 7  19733258.863 7 105337456.307 7  81929213.927 7  19733258.684 7
  23288021.953 5                 124575211.605 5                
 23  9 22 15 51 15.0000000  0 15G10G13G15G16G18G23G26G27G29R06R07R08
                                R21R22R23
  21441426.500 7  21441433.609 8 112675468.369 7  87799098.276 8  21441434.98448
  24218377.891 4                 127268425.377 4                
  21647152.508 7  21647157.969 7 113756550.892 7  88641483.508 7  21647158.01647
  23331703.586 5                 122608899.729 5  95539436.78245  23331710.23445
  20761097.758 6  20761102.809 8 109100302.490 6  85013241.129 8  20761102.89546
  20239298.508 7  20239303.324 8 106358233.470 7  82876593.605 8  20239303.87947
  24090133.734 5  24090143.730 8 126594477.962 5  98645095.379 8  24090144.62147
  22307103.828 6  22307112.188 8 117224623.475 6  91343885.462 8  22307112.73447
  23314296.797 6  23314305.148 7 122517443.540 6  95468133.395 7  23314305.05547
  20489302.844 4                 109334830.423 4                
  19239235.188 8  19239240.535 7 102989144.785 8  80102680.101 7  19239240.828 7
  21980803.281 6  21980810.191 7 117706219.954 6  91549319.899 7  21980810.277 7
  20266039.211 7  20266043.926 7 108447711.296 7  84348227.299 7  20266044.688 7
  19724077.602 8  19724081.016 7 105288462.573 8  81891107.686 7  19724080.410 7
  23273391.133 5                 124496946.935 5                
 23  9 22 15 51 30.0000000  0 15G10G13G15G16G18G23G26G27G29R06R07R08
                                R21R22R23
  21431811.977 7  21431818.707 8 112624941.389 7  87759726.604 8  21431820.34848
  24221170.266 4                 127283098.529 4                
  21647297.477 6  21647302.387 7 113757312.111 6  88642076.654 7  21647303.28947
  23331161.625 5                 122606049.958 5  95537216.14446  23331168.35946
  20757837.156 7  20757842.020 8 109083167.654 7  84999889.285 8  20757842.07047
  20235340.844 7  20235346.086 8 106337436.720 7  82860388.339 8  20235346.33247
  24092221.797 4  24092232.250 8 126605452.655 4  98653647.030 8  24092233.42647
  22294780.750 5  22294788.180 8 117159861.598 5  91293421.665 8  22294788.48848
  23319472.172 6  23319480.391 7 122544641.940 6  95489326.876 7  23319480.75047
  20492229.578 4                 109350455.123 4                
  19231018.781 8  19231025.023 7 102945161.354 8  80068470.775 7  19231024.375 7
  21964678.609 6  21964684.957 7 117619869.055 6  91482158.131 7  21964684.531 7
  20265285.813 7  20265290.754 7 108443681.988 7  84345093.369 7  20265291.277 7
  19714914.602 8  19714917.027 7 105239550.029 8  81853064.595 7  19714916.914 7
  23258758.695 5                 124418664.872 5                
 23  9 22 15 51 45.0000000  0 15G10G13G15G16G18G23G26G27G29R06R07R08
                                R21R22R23
  21422211.484 7  21422218.273 8 112574491.673 7  87720415.148 8  21422219.43448
  24223980.578 4                 127297869.780 4                
  21647469.117 6  21647473.609 7 113758212.705 6  88642778.380 7  21647474.19947
  23330638.961 5                 122603307.224 5  95535078.84246  23330645.85246
  20754588.000 7  20754592.383 8 109066093.242 7  84986584.529 8  20754592.50846
  20231400.523 7  20231405.434 8 106316728.998 7  82844252.438 8  20231406.04347
  24094316.977 4  24094326.691 8 126616457.920 4  98662222.486 8  24094327.64847
  22282473.664 5  22282481.422 8 117095188.518 5  91243027.054 8  22282481.56347
  23324657.813 5  23324665.637 7 122571891.407 5  95510560.174 7  23324665.67247
  20495181.852 4                 109366208.666 4                
  19222837.328 8  19222841.887 7 102901362.663 8  80034405.131 7  19222842.086 7
  21948566.992 6  21948574.363 7 117533594.334 6  91415055.631 7  21948573.938 7
  20264553.641 7  20264558.969 7 108439761.495 7  84342044.077 7  20264558.789 7
  19705766.477 8  19705769.773 7 105190716.616 8  81815083.031 7  19705769.277 7
  23244119.906 5                 124340362.839 5                
 23  9 22 15 52  0.0000000  0 15G10G13G15G16G18G23G26G27G29R06R07R08
                                R21R22R23
  21412625.914 7  21412632.574 8 112524118.549 7  87681163.363 8  21412633.65648
  24226811.094 5                 127312737.943 5                
  21647666.648 6  21647671.051 7 113759251.633 6  88643587.894 7  21647671.72347
  23330137.836 5                 122600670.563 5  95533024.33345  23330144.41445
  20751349.969 7  20751354.789 8 109049078.503 7  84973326.280 8  20751355.21946
  20227476.781 7  20227481.074 8 106296109.364 7  82828185.178 8  20227481.74247
  24096415.953 4  24096427.043 8 126627492.585 4  98670820.856 8  24096427.22347
  22270183.516 6  22270191.148 8 117030603.808 6  91192701.305 8  22270191.46948
  23329852.766 6  23329861.422 7 122599190.926 6  95531832.444 7  23329861.09847
  20498158.492 4                 109382089.808 4                
  19214690.109 7  19214694.945 7 102857748.118 7  80000482.711 7  19214694.676 7
  21932469.602 6  21932475.605 7 117447395.373 6  91348012.019 7  21932476.000 7
  20263840.820 7  20263846.102 7 108435949.244 7  84339078.963 7  20263846.156 6
  19696632.563 8  19696636.930 7 105141961.897 8  81777162.704 7  19696636.168 7
  23229477.813 5                 124262040.572 5                
 23  9 22 15 52 15.0000000  0 15G10G13G15G16G18G23G26G27G29R06R07R08
                                R21R22R23
  21403054.414 7  21403061.746 8 112473822.122 7  87641971.349 8  21403062.43448
  24229659.219 5                 127327703.000 5                
  21647891.180 6  21647895.781 7 113760428.917 6  88644505.238 7  21647895.78547
  23329655.453 5                 122598139.844 5  95531052.28945  23329662.82845
  20748123.570 7  20748128.891 8 109032123.726 7  84960114.746 8  20748128.96947
  20223570.078 7  20223574.215 8 106275577.841 7  82812186.582 8  20223574.96947
  24098521.227 4  24098532.840 8 126638556.521 4  98679442.036 8  24098533.07047
  22257909.992 5  22257918.160 8 116966107.854 5  91142444.734 8  22257918.33247
  23335057.547 5  23335065.645 7 122626540.364 5  95553143.593 7  23335066.06347
  20501157.766 4                 109398098.257 4                
  19206577.250 7  19206581.777 7 102814317.979 7  79966703.713 7  19206581.945 7
  21916387.258 6  21916393.977 7 117361272.736 6  91281027.782 7  21916393.785 7
  20263148.445 7  20263152.895 7 108432245.251 7  84336198.040 7  20263154.004 7
  19687514.258 8  19687517.324 7 105093286.250 8  81739303.859 7  19687517.051 7
  23214832.594 5                 124183698.603 5                
 23  9 22 15 52 30.0000000  0 15G10G13G15G16G18G23G26G27G29R06R07R08
                                R21R22R23
  21393498.297 7  21393505.066 8 112423602.717 7  87602839.347 8  21393505.88348
  24232525.078 4                 127342764.760 4                
  21648140.945 6  21648145.746 7 113761744.430 6  88645530.294 7  21648146.08247
  23329194.977 5                 122595714.874 5  95529162.64046  23329201.62146
  20744909.156 7  20744912.996 8 109015229.134 7  84946950.099 8  20744913.80146
  20219678.992 7  20219684.164 8 106255134.421 7  82796256.630 8  20219684.80947
  24100632.820 5  24100643.133 8 126649649.457 5  98688085.830 8  24100643.71547
  22245654.430 5  22245662.102 8 116901701.235 5  91092257.768 8  22245662.45747
  23340272.141 6  23340279.531 7 122653939.639 6  95574493.622 7  23340280.19547
  20504181.734 4                 109414233.680 4                
  19198498.016 8  19198503.324 7 102771072.553 8  79933068.383 7  19198502.957 7
  21900318.586 6  21900326.676 7 117275226.888 6  91214103.273 7  21900324.957 7
  20262477.281 7  20262481.977 7 108428649.916 7  84333401.636 7  20262482.035 6
  19678410.563 8  19678414.203 7 105044690.213 8  81701506.951 7  19678413.648 7
  23200182.586 5                 124105336.794 5                
 23  9 22 15 52 45.0000000  0 15G10G13G15G16G18G23G26G27G29R06R07R08
                                R21R22R23
  21383956.555 7  21383963.211 8 112373459.892 7  87563767.025 8  21383964.23848
  24235408.422 4                 127357922.689 4                
  21648417.836 6  21648422.230 7 113763197.685 6  88646662.670 7  21648422.99247
  23328752.563 5                 122593395.103 5  95527354.97945  23328759.71545
  20741705.070 6  20741710.340 8 108998394.549 6  84933832.226 8  20741710.66046
  20215805.734 7  20215810.539 8 106234778.709 7  82780395.036 8  20215811.21547
  24102748.828 5  24102759.355 8 126660770.805 5  98696751.754 8  24102760.02047
  22233415.094 6  22233423.168 8 116837383.951 6  91042140.416 8  22233423.07448
  23345495.406 6  23345502.457 7 122681388.255 6  95595882.074 7  23345503.21147
  20507229.500 4                 109430495.217 4                
  19190454.242 7  19190459.852 7 102728011.653 7  79899576.579 7  19190459.309 7
  21884264.578 6  21884270.641 7 117189258.545 6  91147239.027 7  21884270.918 7
  20261825.438 7  20261830.820 7 108425162.936 7  84330689.529 7  20261830.992 7
  19669321.961 7  19669323.438 7 104996173.854 7  81663772.003 7  19669325.012 7
  23185531.805 5                 124026955.418 5                
 23  9 22 15 53  0.0000000  0 15G10G13G15G16G18G23G26G27G29R06R07R08
                                R21R22R23
  21374429.750 7  21374436.934 8 112323395.482 7  87524755.806 8  21374437.14548
  24238311.234 3                 127373178.437 3                
  21648720.750 6  21648725.820 7 113764790.309 6  88647903.661 7  21648726.71947
  23328331.742 5                 122591182.275 5  95525630.66745  23328338.81645
  20738513.828 7  20738518.402 8 108981621.968 7  84920762.663 8  20738519.09846
  20211949.570 7  20211954.117 8 106214512.486 7  82764603.158 8  20211954.96147
  24104870.695 4  24104881.758 8 126671922.149 4  98705441.063 8  24104882.16047
  22221192.750 5  22221201.387 8 116773158.287 5  90992094.454 8  22221201.90248
  23350728.414 5  23350735.566 8 122708887.804 5  95617310.230 8  23350736.07847
  20510301.492 4                 109446884.480 4                
  19182444.367 7  19182449.703 7 102685137.133 7  79866229.729 7  19182449.453 7
  21868225.047 6  21868232.332 7 117103369.578 6  91080436.524 7  21868232.023 7
  20261194.461 7  20261199.246 7 108421786.477 7  84328063.356 7  20261199.301 6
  19660247.570 7  19660251.582 7 104947739.583 7  81626100.903 7  19660251.539 7
  23170876.633 5                 123948556.610 5                
 23  9 22 15 53 15.0000000  0 15G10G13G15G16G18G23G26G27G29R06R07R08
                                R21R22R23
  21364916.750 7  21364923.707 8 112273407.183 7  87485803.895 8  21364924.67248
  24241232.773 3                 127388528.938 3                
  21649049.477 6  21649054.336 7 113766519.519 6  88649251.068 7  21649055.26247
  23327930.695 5                 122589073.464 5  95523987.40346  23327937.51246
  20735333.273 7  20735338.059 8 108964908.865 7  84907739.435 8  20735338.48446
  20208109.289 7  20208114.645 8 106194333.019 7  82748878.886 8  20208114.91847
  24106998.555 5  24107008.336 8 126683100.534 5  98714151.422 8  24107009.19947
  22208988.141 5  22208996.754 8 116709021.964 5  90942118.112 8  22208997.30547
  23355969.828 5  23355978.449 7 122736435.505 5  95638775.885 7  23355978.77047
  20513395.961 4                 109463398.228 4                
  19174470.008 7  19174474.836 7 102642446.785 7  79833026.129 7  19174474.824 7
  21852199.602 6  21852206.758 7 117017557.924 6  91013694.172 7  21852207.035 7
  20260584.539 7  20260587.898 7 108418517.679 7  84325520.928 7  20260588.191 7
  19651189.281 8  19651191.863 7 104899384.738 8  81588491.580 7  19651193.035 7
  23156215.945 4                 123870137.786 4                
 23  9 22 15 53 30.0000000  0 14G10G15G16G18G23G26G27G29R06R07R08R21
                                R22R23
  21355419.164 7  21355425.910 8 112223493.299 7  87446909.962 8  21355426.44948
  21649404.852 6  21649409.848 7 113768383.516 6  88650703.508 7  21649410.69947
  23327548.938 5                 122587066.722 5  95522423.65645  23327555.91445
  20732163.539 7  20732168.594 8 108948253.817 7  84894761.469 8  20732169.10546
  20204285.180 7  20204290.566 8 106174238.622 7  82733220.903 8  20204290.92647
  24109130.367 5  24109140.594 8 126694304.104 5  98722881.423 8  24109141.37147
  22196800.633 5  22196809.000 8 116644973.817 5  90892210.478 8  22196808.98847
  23361221.336 5  23361229.121 7 122764029.660 5  95660277.749 7  23361229.50847
  20516513.688 4                 109480034.559 4                
  19166528.836 7  19166534.109 7 102599938.914 7  79799964.458 7  19166534.234 7
  21836190.523 6  21836196.000 7 116931822.360 6  90947010.977 7  21836196.164 7
  20259993.055 7  20259997.469 7 108415355.395 7  84323061.343 7  20259997.406 6
  19642146.172 8  19642149.512 7 104851108.340 8  81550943.275 7  19642148.738 7
  23141552.227 4                 123791697.904 4                
 23  9 22 15 53 45.0000000  0 14G10G15G16G18G23G26G27G29R06R07R08R21
                                R22R23
  21345935.102 7  21345942.105 8 112173655.909 7  87408075.642 8  21345942.63348
  21649785.078 6  21649790.348 7 113770384.001 6  88652262.309 7  21649791.56647
  23327186.938 5                 122585163.831 5  95520940.83645  23327193.44945
  20729005.711 6  20729010.574 8 108931658.881 6  84881830.323 8  20729010.96147
  20200478.672 7  20200482.977 8 106154231.179 7  82717630.681 8  20200483.88747
  24111267.633 5  24111278.375 8 126705534.509 5  98731632.328 8  24111278.50447
  22184629.992 5  22184637.266 8 116581016.100 5  90842373.290 8  22184637.83248
  23366480.984 5  23366489.484 8 122791671.854 5  95681817.056 8  23366489.71947
  20519654.133 4                 109496794.979 4                
  19158622.617 8  19158627.961 7 102557615.641 8  79767046.364 7  19158627.371 7
  21820194.641 6  21820201.074 7 116846165.345 6  90880388.887 7  21820200.648 7
  20259422.438 7  20259426.277 7 108412301.553 7  84320686.105 7  20259426.566 6
  19633117.531 7  19633121.445 7 104802912.766 7  81513457.825 7  19633121.219 7
  23126884.930 4                 123713238.974 4                
 23  9 22 15 54  0.0000000  0 14G10G15G16G18G23G26G27G29R06R07R08R21
                                R22R23
  21636259.031 7  21636265.781 8 113699317.437 7  88596902.816 8  21636266.48048
  21949984.430 6  21949989.645 7 115347939.922 6  89881526.637 7  21949990.07447
  23626636.531 5                 124158783.504 5  96747137.93745  23626643.25445
  21025652.109 7  21025657.281 8 110490544.403 7  86096546.295 8  21025657.82846
  20496480.539 7  20496485.320 8 107709731.006 7  83929708.459 8  20496485.45747
  24413201.648 5  24413212.547 8 128292209.767 5  99968002.590 8  24413213.40247
  22472269.578 5  22472277.734 8 118092572.642 5  92020209.566 8  22472277.59048
  23671542.969 5  23671551.215 7 124394779.204 5  96930991.521 7  23671551.02047
  20822610.523 4                 111113427.020 4                
  19450543.141 8  19450548.516 7 104120291.522 8  80982460.940 7  19450548.305 7
  22104007.281 6  22104012.594 7 118365967.272 6  92062457.071 7  22104012.637 7
  20558665.070 7  20558666.828 7 110013605.669 7  85566144.837 7  20558668.523 6
  19923897.172 8  19923901.000 7 106355113.087 8  82720724.729 7  19923899.918 7
  23412008.250 4                 125238453.298 4                
 23  9 22 15 54 15.0000000  0 14G10G15G16G18G23G26G27G29R06R07R08R21
                                R22R23
  21626804.219 7  21626810.977 8 113649631.498 7  88558186.504 8  21626811.46548
  21950416.523 6  21950421.645 7 115350211.607 6  89883296.770 7  21950422.51247
  23626313.461 5                 124157085.945 5  96745815.16245  23626320.39545
  21022516.672 7  21022521.133 8 110474068.554 7  86083707.950 8  21022522.13746
  20492705.703 7  20492710.379 8 107689895.622 7  83914252.307 8  20492710.75047
  24415348.875 5  24415359.402 8 128303491.339 5  99976793.359 8  24415360.00847
  22460132.820 5  22460141.063 8 118028795.498 5  91970513.095 8  22460141.88748
  23676820.344 5  23676828.973 8 124422515.387 5  96952604.053 8  23676829.32847
  20825797.227 4                 111130432.868 4                
  19442705.430 8  19442712.176 7 104078336.393 8  80949829.173 7  19442710.930 7
  22088040.953 6  22088046.563 7 118280467.476 6  91995957.259 7  22088046.137 7
  20558133.734 7  20558137.305 7 110010767.567 7  85563937.389 7  20558138.180 6
  19914898.273 8  19914902.414 7 106307078.724 8  82683364.652 7  19914901.992 7
  23397333.664 4                 125159955.891 4                
 23  9 22 15 54 30.0000000  0 14G10G15G16G18G23G26G27G29R06R07R08R21
                                R22R23
  21617363.305 7  21617370.059 8 113600021.072 7  88519529.041 8  21617371.07848
  21950874.734 6  21950879.652 7 115352617.864 6  89885171.747 7  21950880.29347
  23626010.492 5                 124155490.349 5  96744571.80345  23626016.97745
  21019392.938 7  21019398.043 8 110457651.950 7  86070915.776 8  21019398.39146
  20488947.625 6  20488952.285 8 107670145.630 6  83898862.695 8  20488952.25847
  24417500.422 4  24417510.898 8 128314797.634 4  99985603.392 8  24417511.57047
  22448013.820 6  22448021.777 8 117965108.734 6  91920887.049 8  22448022.00448
  23682107.461 5  23682115.469 8 124450297.729 5  96974252.553 8  23682116.17647
  20829006.773 4                 111147560.297 4                
  19434902.133 7  19434908.168 7 104036565.166 7  80917340.448 7  19434907.758 7
  22072088.156 5  22072092.727 7 118195046.038 5  91929518.393 7  22072093.711 6
  20557623.211 7  20557626.316 7 110008037.156 7  85561813.700 7  20557627.664 6
  19905914.461 7  19905919.137 7 106259124.945 7  82646067.279 7  19905918.727 7
  23382656.367 4                 125081439.209 4                
 23  9 22 15 54 45.0000000  0 14G10G15G16G18G23G26G27G29R06R07R08R21
                                R22R23
  21607937.602 7  21607943.711 8 113550485.733 7  88480930.090 8  21607944.91448
  21951357.594 6  21951362.691 7 115355158.241 6  89887151.219 7  21951363.52047
  23625726.227 5                 124153995.997 5  96743407.28945  23625732.07845
  21016280.109 6  21016284.504 8 110441294.341 6  86058169.573 8  21016285.25846
  20485205.328 7  20485209.547 8 107650480.507 7  83883539.217 8  20485210.22747
  24419655.789 4  24419666.684 8 128326127.815 4  99994432.034 8  24419667.39547
  22435911.789 6  22435919.430 8 117901512.290 6  91871331.378 8  22435919.57448
  23687403.086 5  23687411.266 8 124478125.711 5  96995936.637 8  23687411.21147
  20832238.711 4                 111164808.425 4                
  19427133.328 7  19427139.883 7 103994977.528 7  80884994.515 7  19427139.027 7
  22056150.742 5  22056156.742 7 118109703.854 5  91863141.176 7  22056156.902 7
  20557132.773 7  20557137.039 7 110005413.772 7  85559773.279 7  20557137.328 6
  19896946.406 7  19896949.266 7 106211251.641 7  82608832.478 7  19896949.754 7
  23367974.930 4                 125002902.913 4                
 23  9 22 15 55  0.0000000  0 14G10G15G16G18G23G26G27G29R06R07R08R21
                                R22R23
  21598525.609 7  21598532.383 8 113501027.046 7  88442390.848 8  21598532.98048
  21951867.070 6  21951872.137 7 115357834.272 6  89889236.425 7  21951872.32047
  23625460.930 5                 124152604.236 5  96742322.76945  23625466.84045
  21013178.875 7  21013183.793 8 110424997.461 7  86045470.696 8  21013183.91047
  20481479.641 6  20481484.059 8 107630901.826 6  83868283.091 8  20481484.88747
  24421817.180 5  24421827.746 8 128337483.344 5 100003280.460 8  24421828.75447
  22423827.641 6  22423835.094 8 117838008.154 6  91821847.639 8  22423835.10948
  23692707.938 5  23692716.121 8 124506000.734 5  97017657.325 8  23692716.43047
  20835496.039 4                 111182178.578 4                
  19419399.555 8  19419405.496 7 103953575.188 8  80852792.684 7  19419404.684 7
  22040228.203 5  22040234.500 7 118024442.441 5  91796826.752 7  22040234.781 6
  20556663.555 7  20556666.590 7 110002899.682 7  85557817.832 7  20556667.703 6
  19887993.617 7  19887997.457 7 106163460.778 7  82571661.810 7  19887997.180 7
  23353290.180 5                 124924348.892 5                
 23  9 22 15 55 15.0000000  0 14G10G15G16G18G23G26G27G29R06R07R08R21
                                R22R23
  21589128.578 7  21589134.977 8 113451644.972 7  88403911.320 8  21589135.92648
  21952402.023 6  21952407.023 7 115360645.567 6  89891427.003 7  21952407.65247
  23625215.875 5                 124151314.750 5  96741317.98045  23625221.74245
  21010089.641 7  21010094.129 8 110408761.422 7  86032819.219 8  21010094.52346
  20477770.039 7  20477774.582 8 107611409.423 7  83853094.198 8  20477775.43047
  24423982.781 5  24423993.477 8 128348863.772 5 100012148.264 8  24423994.14147
  22411760.617 6  22411768.602 8 117774596.691 6  91772436.105 8  22411768.71547
  23698021.563 5  23698029.266 7 124533922.478 5  97039414.447 7  23698030.31647
  20838772.445 4                 111199670.183 4                
  19411699.656 8  19411705.227 7 103912358.228 8  80820735.046 7  19411704.973 7
  22024322.484 6  22024327.484 7 117939262.506 6  91730575.700 7  22024327.996 6
  20556214.891 7  20556217.012 6 110000494.630 7  85555947.195 6  20556218.711 6
  19879056.500 7  19879060.164 7 106115752.969 7  82534555.719 7  19879059.512 7
  23338601.078 4                 124845777.579 4                
 23  9 22 15 55 30.0000000  0 15G10G15G16G18G23G26G27G29G32R06R07R08
                                R21R22R23
  21579745.844 7  21579752.855 8 113402339.244 7  88365491.271 8  21579753.57848
  21952962.344 6  21952967.715 7 115363591.437 6  89893722.479 7  21952968.49247
  23624989.273 5                 124150126.763 5  96740392.20645  23624995.97745
  21007011.320 6  21007015.801 8 110392585.785 6  86020214.808 8  21007016.88746
  20474077.195 7  20474082.176 8 107592002.701 7  83837972.063 8  20474082.76647
  24426153.328 4  24426163.891 8 128360268.295 4 100021034.839 8  24426164.28947
  22399711.297 6  22399718.934 8 117711277.733 6  91723096.660 8  22399719.41848
  23703343.453 5  23703351.266 8 124561890.287 5  97061207.481 8  23703351.89547
  24936491.359 4  24936503.746 7 131042139.69914 102110790.12217  24936503.62546
  20842073.531 4                 111217282.271 4                
  19404034.781 7  19404039.316 7 103871326.003 7  80788821.098 7  19404039.926 7
  22008430.570 5  22008436.840 7 117854163.797 5  91664387.844 7  22008436.883 7
  20555785.594 7  20555788.570 7 109998198.253 7  85554161.085 7  20555789.563 6
  19870134.891 8  19870139.246 7 106068127.851 8  82497513.969 7  19870138.367 7
  23323910.398 4                 124767188.619 4                
 23  9 22 15 55 45.0000000  0 15G10G15G16G18G23G26G27G29G32R06R07R08
                                R21R22R23
  21570377.992 7  21570384.410 8 113353111.935 7  88327132.333 8  21570385.42648
  21953549.094 6  21953554.891 7 115366673.806 6  89896124.294 7  21953555.28147
  23624783.516 5                 124149042.190 5  96739547.06245  23624790.62545
  21003945.109 7  21003949.840 8 110376472.801 7  86007659.228 8  21003950.59446
  20470400.727 7  20470405.746 8 107572683.629 7  83822918.235 8  20470406.48447
  24428327.977 4  24428339.344 8 128371698.801 4 100029941.666 8  24428339.43846
  22387680.367 6  22387688.754 8 117648053.777 6  91673831.238 8  22387688.39848
  23708674.297 5  23708682.203 8 124589906.030 5  97083037.831 8  23708683.24647
  24921280.320 4  24921292.121 7 130962203.775 4 102048502.400 7  24921291.99246
  20845396.977 4                 111235016.786 4                
  19396404.398 7  19396411.059 7 103830481.012 7  80757052.772 7  19396410.129 7
  21992554.961 5  21992560.484 7 117769148.755 5  91598265.058 7  21992560.293 7
  20555376.867 7  20555379.785 6 109996012.717 7  85552461.207 6  20555380.660 6
  19861229.102 8  19861232.473 7 106020588.043 8  82460538.559 7  19861232.227 7
  23309216.352 4                 124688584.272 4                
 23  9 22 15 56  0.0000000  0 15G10G15G16G18G23G26G27G29G32R06R07R08
                                R21R22R23
  21561025.266 7  21561032.105 8 113303961.597 7  88288833.372 8  21561033.10948
  21954161.203 6  21954166.852 7 115369891.094 6  89898631.243 7  21954167.49647
  23624595.891 5                 124148059.247 5  96738781.11345  23624603.60245
  21000890.695 7  21000894.766 8 110360421.238 7  85995151.495 8  21000895.79346
  20466740.898 7  20466746.234 8 107553450.729 7  83807931.552 8  20466746.68047
  24430506.461 3  24430518.398 8 128383153.501 3 100038867.320 8  24430519.46146
  22375666.883 6  22375675.039 8 117584923.806 6  91624639.051 8  22375675.34448
  23714014.469 5  23714022.770 7 124617968.108 5  97104904.306 7  23714023.39847
  24906068.047 3  24906080.699 7 130882262.938 3 101986210.830 7  24906080.15246
  20848742.641 4                 111252871.755 4                
  19388808.773 8  19388814.457 7 103789822.070 8  80725429.168 7  19388813.863 7
  21976694.547 5  21976700.555 7 117684217.076 5  91532207.100 7  21976700.246 6
  20554988.922 7  20554991.945 7 109993936.885 7  85550846.624 7  20554993.293 6
  19852338.891 7  19852342.871 7 105973132.511 7  82423628.687 7  19852342.395 7
  23294519.500 4                 124609963.738 4                
 23  9 22 15 56 15.0000000  0 15G10G15G16G18G23G26G27G29G32R06R07R08
                                R21R22R23
  21551687.266 7  21551694.352 8 113254890.303 7  88250596.004 8  21551695.13348
  21954799.688 6  21954804.777 7 115373244.908 6  89901244.578 7  21954805.75047
  23624428.891 5                 124147179.632 5  96738095.60245  23624436.27345
  20997847.883 7  20997852.934 8 110344433.044 7  85982693.167 8  20997853.49247
  20463097.555 7  20463103.117 8 107534305.785 7  83793013.400 8  20463102.96147
  24432692.016 4  24432703.301 8 128394633.988 4 100047813.085 8  24432704.23047
  22363672.125 6  22363679.336 8 117521890.031 6  91575521.825 8  22363680.10548
  23719364.273 5  23719371.348 8 124646078.112 5  97126808.125 8  23719372.47747
  24890854.922 2  24890867.605 7 130802319.421 2 101923917.217 7  24890866.82846
  20852112.234 4                 111270848.430 4                
  19381248.891 8  19381254.199 7 103749351.086 8  80693951.730 7  19381253.426 7
  21960850.406 5  21960855.289 7 117599370.705 5  91466215.507 7  21960855.098 7
  20554621.391 7  20554624.547 7 109991972.885 7  85549319.049 7  20554625.895 6
  19843465.336 7  19843469.465 7 105925763.561 7  82386786.151 7  19843468.387 7
  23279819.469 3                 124531328.912 3                
 23  9 22 15 56 30.0000000  0 15G10G15G16G18G23G26G27G29G32R06R07R08
                                R21R22R23
  21542364.281 7  21542370.977 8 113205897.716 7  88212419.970 8  21542372.15248
  21955463.828 6  21955469.598 7 115376734.838 6  89903963.975 7  21955469.96547
  23624281.172 5                 124146402.868 5  96737490.28345  23624288.49245
  20994818.180 7  20994822.781 8 110328508.090 7  85970284.095 8  20994823.50047
  20459471.141 7  20459476.336 8 107515248.398 7  83778163.486 8  20459476.76647
  24434882.031 4  24434893.336 8 128406139.703 4 100056778.499 8  24434893.78547
  22351695.570 6  22351703.465 8 117458952.548 6  91526479.635 8  22351703.50048
  23724722.156 5  23724730.887 8 124674235.546 5  97148748.896 8  23724731.01647
  24875642.820 3  24875654.453 8 130722373.320 3 101861621.588 8  24875653.84846
  20855503.055 4                 111288946.370 4                
  19373723.406 8  19373728.336 7 103709067.631 8  80662620.172 7  19373728.238 7
  21945021.133 5  21945027.605 7 117514609.732 5  91400290.345 7  21945027.414 7
  20554276.406 7  20554279.387 7 109990120.249 7  85547878.095 7  20554280.031 6
  19834607.438 7  19834610.867 7 105878481.150 7  82350010.941 7  19834610.770 7
  23265115.016 3                 124452679.862 3                
 23  9 22 15 56 45.0000000  0 15G10G15G16G18G23G26G27G29G32R06R07R08
                                R21R22R23
  21533055.680 7  21533063.031 8 113156983.011 7  88174304.628 8  21533064.15648
  21956153.219 6  21956159.000 7 115380359.763 6  89906788.557 7  21956159.56647
  23624152.734 5                 124145727.810 5  96736964.27045  23624159.26645
  20991799.336 7  20991804.520 8 110312645.728 7  85957923.802 8  20991804.70347
  20455861.680 7  20455866.340 8 107496277.693 7  83763381.114 8  20455866.71147
  24437075.734 4  24437086.973 7 128417669.519 4 100065762.695 7  24437087.51247
  22339737.414 6  22339745.434 8 117396110.972 6  91477512.178 8  22339745.60548
  23730089.445 5  23730097.609 8 124702439.346 5  97170725.796 8  23730098.27747
  24860428.359 2  24860440.219 7 130642424.287 2 101799323.666 7  24860440.35246
  20858917.938 4                 111307164.256 4                
  19366233.172 8  19366237.879 7 103668971.403 8  80631434.217 7  19366237.750 7
  21929208.180 5  21929213.707 7 117429933.832 5  91334431.332 7  21929214.340 7
  20553950.414 7  20553953.152 7 109988378.456 7  85546523.328 7  20553955.320 6
  19825765.828 7  19825769.508 7 105831284.858 7  82313302.717 7  19825769.102 7
  23250411.234 3                 124374016.243 3                
 23  9 22 15 57  0.0000000  0 15G10G15G16G18G23G26G27G29G32R06R07R08
                                R21R22R23
  21523763.070 7  21523769.672 8 113108148.705 7  88136251.938 8  21523770.98848
  21956869.328 6  21956874.371 7 115384121.763 6  89909719.956 7  21956875.43847
  23624044.688 5                 124145156.410 5  96736518.94946  23624051.10946
  20988793.125 6  20988798.004 8 110296848.216 6  85945614.046 8  20988798.26647
  20452268.203 7  20452272.715 8 107477395.739 7  83748667.897 8  20452273.77747
  24439275.266 4  24439286.145 8 128429225.336 4 100074767.168 8  24439286.84047
  22327797.109 6  22327805.098 8 117333367.855 6  91428621.432 8  22327805.58648
  23735465.336 5  23735473.738 8 124730691.625 5  97192740.484 8  23735474.23847
  24845214.727 2  24845227.188 8 130562474.807 2 101737025.390 8  24845226.19946
  20862353.867 4                 111325503.849 4                
  19358777.703 7  19358782.719 7 103629064.412 7  80600395.452 7  19358782.996 7
  21913411.961 5  21913418.789 7 117345345.936 5  91268640.786 7  21913418.719 7
  20553646.453 7  20553649.973 7 109986749.740 7  85545256.509 7  20553650.965 7
  19816941.219 7  19816944.063 7 105784177.306 7  82276663.517 7  19816944.164 7
  23235704.117 4                 124295340.544 4                
 23  9 22 15 57 15.0000000  0 15G10G15G16G18G23G26G27G29G32R06R07R08
                                R21R22R23
  21514485.461 7  21514492.891 8 113059394.381 7  88098261.572 8  21514493.79748
  21957611.680 6  21957616.707 7 115388020.267 6  89912757.724 7  21957617.37147
  23623954.688 5                 124144688.056 5  96736153.93945  23623961.64145
  20985799.461 7  20985804.266 8 110281115.419 7  85933354.716 8  20985804.62546
  20448691.641 7  20448696.977 8 107458602.104 7  83734023.494 8  20448697.33647
  24441479.617 4  24441489.914 7 128440806.561 4 100083791.422 7  24441490.52746
  22315876.609 6  22315884.449 8 117270723.218 6  91379807.436 8  22315885.18848
  23740851.672 5  23740859.297 8 124758991.742 5  97214792.429 8  23740860.12547
  24830000.242 3  24830012.832 8 130482524.929 3 101674726.829 8  24830012.68846
  20865813.430 4                 111343964.305 4                
  19351358.547 7  19351364.277 7 103589346.675 7  80569503.885 7  19351363.559 7
  21897631.773 5  21897639.781 7 117260846.208 5  91202918.807 7  21897639.355 7
  20553362.914 7  20553366.813 7 109985233.848 7  85544077.435 7  20553368.043 7
  19808132.898 7  19808136.320 7 105737158.497 7  82240093.339 7  19808135.879 7
  23220993.273 4                 124216652.504 4                
 23  9 22 15 57 30.0000000  0 15G10G15G16G18G23G26G27G29G32R06R07R08
                                R21R22R23
  21505222.477 7  21505230.293 8 113010720.285 7  88060333.710 8  21505231.18448
  21958379.203 6  21958385.246 7 115392055.412 6  89915901.963 7  21958384.98447
  23623885.805 5                 124144322.934 5  96735869.40245  23623892.47745
  20982817.945 6  20982822.387 8 110265447.800 6  85921146.168 8  20982823.13746
  20445132.609 7  20445137.445 8 107439897.102 7  83719448.158 8  20445138.02047
  24443687.734 5  24443697.891 7 128452413.186 5 100092835.481 7  24443698.56346
  22303974.633 6  22303982.059 8 117208177.771 6  91331070.731 8  22303982.51248
  23746245.891 5  23746253.344 8 124787339.829 5  97236881.765 8  23746254.48047
  24814786.805 4  24814799.324 8 130402575.404 4 101612428.543 8  24814799.09047
  20869295.406 3                 111362545.815 3                
  19343974.328 8  19343979.891 7 103549818.653 8  80538759.868 7  19343979.297 7
  21881869.156 5  21881875.973 7 117176435.174 5  91137265.820 7  21881875.664 7
  20553100.539 7  20553104.547 7 109983831.271 7  85542986.530 7  20553105.891 6
  19799341.555 7  19799345.066 7 105690229.269 7  82203592.803 7  19799344.762 7
  23206281.766 4                 124137952.914 4                
 23  9 22 15 57 45.0000000  0 15G10G15G16G18G23G26G27G29G32R06R07R08
                                R21R22R23
  21495976.188 7  21495983.211 8 112962127.571 7  88022469.267 8  21495984.23848
  21959173.336 6  21959178.340 7 115396228.125 6  89919153.388 7  21959178.91047
  23623835.867 5                 124144061.803 5  96735665.86545  23623842.54345
  20979848.766 7  20979853.527 8 110249846.536 7  85908989.336 8  20979854.28146
  20441590.125 7  20441594.469 8 107421281.588 7  83704942.552 8  20441595.08247
  24445901.836 4  24445912.066 7 128464045.994 4 100101899.969 7  24445912.72346
  22292091.820 6  22292099.105 8 117145732.964 6  91282412.446 8  22292099.85548
  23751649.469 5  23751657.727 8 124815736.836 5  97259009.217 8  23751658.14847
  24799573.711 4  24799584.801 8 130322627.688 4 101550131.676 8  24799585.23847
  20872800.266 3                 111381248.877 3                
  19336626.383 7  19336630.469 7 103510481.297 7  80508164.147 7  19336630.285 7
  21866122.133 6  21866129.258 7 117092114.291 6  91071682.952 7  21866129.301 7
  20552859.539 7  20552863.699 7 109982543.219 7  85541984.676 7  20552864.578 6
  19790566.938 8  19790571.383 7 105643391.151 8  82167163.150 7  19790570.590 7
  23191567.125 3                 124059243.020 3                
 23  9 22 15 58  0.0000000  0 15G10G15G16G18G23G26G27G29G32R06R07R08
                                R21R22R23
  21486744.055 7  21486750.535 8 112913614.193 7  87984666.642 8  21486752.03948
  21959992.789 6  21959998.320 7 115400536.040 6  89922510.166 7  21959998.54747
  23623805.047 5                 124143902.350 5  96735541.59145  23623811.99245
  20976892.422 6  20976897.172 8 110234309.668 6  85896882.676 8  20976897.89146
  20438064.719 7  20438069.016 8 107402753.439 7  83690505.021 8  20438069.69147
  24448120.133 4  24448130.734 7 128475702.672 4 100110983.024 7  24448131.14146
  22280227.117 6  22280235.324 8 117083387.128 6  91233831.277 8  22280235.30148
  23757061.891 5  23757070.781 8 124844180.503 5  97281173.025 8  23757071.00447
  24784359.367 5  24784371.898 8 130242680.010 5 101487834.828 8  24784371.42647
  20876327.617 3                 111400070.818 3                
  19329312.188 8  19329317.516 7 103471332.651 8  80477715.203 7  19329317.367 7
  21850394.250 5  21850399.789 7 117007882.239 5  91006169.163 7  21850399.129 7
  20552639.211 7  20552644.684 7 109981367.767 7  85541070.380 7  20552644.973 6
  19781809.344 7  19781812.258 7 105596642.121 7  82130802.788 7  19781812.531 7
  23176851.164 3                 123980520.977 3                
 23  9 22 15 58 15.0000000  0 15G10G15G16G18G23G26G27G29G32R06R07R08
                                R21R22R23
  21477527.820 7  21477534.750 8 112865181.228 7  87946926.676 8  21477535.78148
  21960838.305 6  21960843.566 7 115404979.775 6  89925972.795 7  21960844.11747
  23623793.914 5                 124143845.085 5  96735496.93045  23623801.31645
  20973948.188 6  20973952.699 8 110218838.134 6  85884826.926 8  20973953.68046
  20434555.258 7  20434560.281 8 107384313.350 7  83676136.111 8  20434560.75447
  24450342.664 4  24450353.082 7 128487383.589 4 100120084.957 7  24450354.18446
  22268382.789 6  22268389.922 8 117021141.352 6  91185328.082 8  22268390.80148
  23762484.086 5  23762492.117 8 124872671.417 5  97303373.680 8  23762492.94147
  24769146.180 5  24769158.160 8 130162733.534 5 101425538.927 8  24769157.76247
  20879877.547 3                 111419012.291 3                
  19322034.859 8  19322040.738 7 103432373.861 8  80447413.924 7  19322039.961 7
  21834680.234 5  21834686.953 7 116923740.333 5  90940725.502 7  21834686.410 7
  20552442.000 7  20552447.668 7 109980305.607 7  85540244.232 7  20552447.371 7
  19773069.141 8  19773071.555 7 105549983.572 8  82094512.799 7  19773071.531 7
  23162132.648 3                 123901788.063 3                
 23  9 22 15 58 30.0000000  0 15G10G15G16G18G23G26G27G29G32R06R07R08
                                R21R22R23
  21468326.547 7  21468333.129 8 112816827.776 7  87909248.677 8  21468334.51248
  21961709.914 6  21961715.367 7 115409558.457 6  89929540.557 7  21961715.91047
  23623802.586 5                 124143888.962 5  96735531.10345  23623810.02045
  20971016.930 6  20971021.039 8 110203431.346 6  85872821.622 8  20971021.72747
  20431062.734 7  20431067.496 8 107365960.507 7  83661835.195 8  20431068.06347
  24452569.938 4  24452581.168 7 128499087.893 4 100129205.114 7  24452581.36346
  22256557.008 6  22256564.379 8 116958995.379 6  91136902.648 8  22256564.34048
  23767914.516 5  23767923.215 8 124901208.532 5  97325610.306 8  23767923.40647
  24753933.078 5  24753945.285 8 130082788.001 5 101363243.786 8  24753945.68047
  20883448.719 3                 111438071.914 3                
  19314792.227 7  19314797.543 7 103393603.958 7  80417259.568 7  19314796.906 7
  21818984.320 5  21818990.039 7 116839688.098 5  90875351.571 7  21818990.203 7
  20552264.719 7  20552269.227 7 109979356.198 7  85539505.756 7  20552269.520 6
  19764345.344 7  19764348.969 7 105503415.129 7  82058292.896 7  19764348.438 7
  23147412.875 4                 123823043.752 4                
 23  9 22 15 58 45.0000000  0 15G10G15G16G18G23G26G27G29G32R06R07R08
                                R21R22R23
  21459140.367 7  21459147.285 8 112768554.246 7  87871632.956 8  21459148.40248
  21962606.938 6  21962612.395 7 115414272.063 6  89933213.462 7  21962612.53147
  23623830.242 5                 124144034.130 5  96735644.15445  23623837.25845
  20968097.242 7  20968101.219 8 110188089.779 7  85860867.155 8  20968102.48847
  20427587.273 6  20427591.898 8 107347695.178 6  83647602.459 8  20427592.57047
  24454801.383 4  24454812.445 7 128510815.499 4 100138343.463 7  24454813.13746
  22244750.016 6  22244757.336 8 116896949.873 6  91088555.508 8  22244757.84048
  23773353.844 5  23773361.852 8 124929791.886 5  97347882.951 8  23773362.77747
  24738720.344 5  24738732.309 8 130002844.063 5 101300949.884 8  24738731.87547
  20887043.789 4                 111457249.756 4                
  19307584.875 8  19307590.059 7 103355023.703 8  80387252.712 7  19307590.074 7
  21803305.133 5  21803311.137 7 116755726.313 5  90810048.004 7  21803310.711 7
  20552108.711 7  20552113.348 7 109978520.001 7  85538855.367 7  20552113.754 6
  19755637.984 7  19755640.602 7 105456937.449 7  82022143.586 7  19755640.629 7
  23132689.227 4                 123744288.707 4                
 23  9 22 15 59  0.0000000  0 15G10G15G16G18G23G26G27G29G32R06R07R08
                                R21R22R23
  21449969.195 7  21449975.883 8 112720360.007 7  87834079.011 8  21449977.10948
  21963529.523 6  21963534.578 7 115419119.634 6  89936990.763 7  21963534.97347
  23623877.648 5                 124144279.582 5  96735835.35645  23623884.33245
  20965189.953 6  20965194.750 8 110172812.750 6  85848962.965 8  20965195.07447
  20424127.594 7  20424132.734 8 107329516.388 7  83633437.158 8  20424133.34847
  24457037.367 4  24457048.027 7 128522565.322 4 100147499.103 7  24457049.06646
  22232962.563 6  22232970.063 8 116835004.396 6  91040286.315 8  22232970.35948
  23778801.672 5  23778809.938 8 124958420.565 5  97370190.928 8  23778810.52347
  24723507.523 5  24723520.145 8 129922901.264 5 101238656.873 8  24723519.71547
  20890658.695 4                 111476544.414 4                
  19300413.117 7  19300418.879 7 103316632.101 7  80357392.581 7  19300418.570 7
  21787642.500 5  21787649.164 7 116671854.913 5  90744814.743 7  21787648.387 7
  20551972.563 7  20551976.953 7 109977796.352 7  85538292.494 7  20551978.418 7
  19746948.180 7  19746950.898 7 105410550.035 7  81986064.478 7  19746951.262 7
  23117965.859 4                 123665522.353 4                
 23  9 22 15 59 15.0000000  0 15G10G15G16G18G23G26G27G29G32R06R07R08
                                R21R22R23
  21440812.945 7  21440819.883 8 112672245.345 7  87796587.080 8  21440821.50848
  21964477.672 6  21964482.316 7 115424101.082 6  89940872.369 7  21964483.47747
  23623943.297 5                 124144625.319 5  96736104.77745  23623950.46545
  20962294.852 7  20962299.859 8 110157600.586 7  85837109.318 8  20962300.21146
  20420684.906 7  20420689.941 8 107311424.255 7  83619339.390 8  20420690.32447
  24459278.281 3  24459288.070 7 128534337.273 3 100156672.000 7  24459289.47346
  22221193.070 6  22221201.488 8 116773159.491 6  90992095.499 8  22221201.53148
  23784258.273 5  23784265.988 8 124987094.466 5  97392534.167 8  23784266.65247
  24708295.156 5  24708307.191 8 129842960.195 5 101176365.219 8  24708307.30147
  20894296.336 3                 111495955.660 3                
  19293276.094 7  19293282.305 7 103278429.474 7  80327679.435 7  19293281.535 7
  21771996.117 5  21772002.625 7 116588074.184 5  90679651.999 7  21772002.906 7
  20551858.742 7  20551863.762 7 109977185.481 7  85537817.328 7  20551863.934 7
  19738275.523 7  19738278.430 7 105364253.651 7  81950056.179 7  19738278.113 7
  23103238.945 5                 123586744.981 5                
 23  9 22 15 59 30.0000000  0 15G10G15G16G18G23G26G27G29G32R06R07R08
                                R21R22R23
  21431672.195 7  21431679.438 8 112624210.325 7  87759157.209 8  21431680.57048
  21965451.219 6  21965455.832 7 115429216.495 6  89944858.354 7  21965457.31347
  23624028.172 5                 124145071.021 5  96736451.96145  23624035.32845
  20959412.617 6  20959417.715 8 110142453.629 6  85825306.494 8  20959418.25446
  20417258.391 7  20417263.688 8 107293418.951 7  83605309.265 8  20417263.76247
  24461522.648 4  24461533.129 7 128546131.251 4 100165862.031 7  24461533.40246
  22209443.375 6  22209451.895 8 116711415.784 6  90943983.527 8  22209451.73448
  23789723.070 5  23789732.484 8 125015813.736 5  97414912.708 8  23789732.59047
  24693083.313 5  24693095.391 8 129763021.459 5 101114075.395 8  24693095.27347
  20897956.156 3                 111515483.478 3                
  19286175.477 7  19286181.297 7 103240416.119 7  80298113.491 7  19286179.906 7
  21756367.672 5  21756374.605 7 116504384.905 5  90614560.387 7  21756374.883 7
  20551765.859 7  20551770.336 7 109976687.816 7  85537430.214 7  20551770.980 7
  19729620.328 7  19729623.703 7 105318048.753 7  81914119.041 7  19729623.230 7
  23088511.422 5                 123507957.499 5                
 23  9 22 15 59 45.0000000  0 15G10G15G16G18G23G26G27G29G32R06R07R08
                                R21R22R23
  21422546.648 7  21422553.543 8 112576254.005 7  87721788.656 8  21422554.45348
  21966449.391 6  21966455.059 7 115434464.792 6  89948947.897 7  21966455.58247
  23624131.484 5                 124145615.633 5  96736876.32446  23624138.73046
  20956542.828 6  20956548.211 8 110127371.082 6  85813553.855 8  20956548.10247
  20413848.680 7  20413853.250 8 107275499.359 7  83591345.942 8  20413854.19947
  24463771.070 4  24463780.660 7 128557946.047 4 100175068.320 7  24463781.40246
  22197713.656 6  22197720.539 8 116649772.688 6  90895949.950 8  22197721.43848
  23795197.258 5  23795205.578 8 125044577.208 5  97437325.727 8  23795205.51647
  24677872.031 6  24677883.816 8 129683084.480 6 101051786.929 8  24677883.84447
  20901637.156 4                 111535126.384 4                
  19279109.547 7  19279114.508 7 103202591.354 7  80268694.227 7  19279113.676 7
  21740756.023 5  21740763.656 7 116420786.907 5  90549539.762 7  21740763.113 7
  20551693.656 7  20551698.219 7 109976302.289 7  85537130.338 7  20551699.566 7
  19720981.102 7  19720984.383 7 105271934.767 7  81878252.586 7  19720983.965 7
  23073780.797 5                 123429159.049 5                
 23  9 22 16  0  0.0000000  0 15G10G15G16G18G23G26G27G29G32R06R07R08
                                R21R22R23
  21413436.164 7  21413443.203 8 112528378.047 7  87684482.732 8  21413444.27048
  21967473.781 6  21967479.973 7 115439847.068 6  89953141.842 7  21967480.39847
  23624254.016 5                 124146260.348 5  96737378.63345  23624261.62145
  20953685.180 6  20953690.629 8 110112354.480 6  85801852.604 8  20953691.24247
  20410455.156 7  20410459.805 8 107257666.851 7  83577450.473 8  20410460.45347
  24466023.008 3  24466033.223 7 128569782.861 3 100184291.729 7  24466033.67646
  22186002.758 6  22186010.520 8 116588232.000 6  90847996.173 8  22186010.64148
  23800678.781 5  23800686.652 7 125073386.071 5  97459774.124 7  23800687.19947
  24662660.836 6  24662673.141 8 129603151.021 6 100989501.226 8  24662672.96147
  20905339.844 4                 111554885.281 4                
  19272079.258 7  19272085.000 7 103164956.521 7  80239422.702 7  19272084.145 7
  21725163.063 5  21725168.418 7 116337281.660 5  90484591.277 7  21725169.402 7
  20551643.063 7  20551647.465 7 109976030.696 7  85536919.079 7  20551648.105 7
  19712359.438 8  19712362.922 7 105225913.572 8  81842458.330 7  19712363.227 7
  23059047.547 4                 123350351.373 4                
 23  9 22 16  0 15.0000000  0 15G10G15G16G18G23G26G27G29G32R06R07R08
                                R21R22R23
  21404340.719 7  21404348.035 8 112480580.767 7  87647238.111 8  21404349.02748
  21968523.258 6  21968528.762 7 115445361.486 6  89957438.751 7  21968529.64547
  23624395.695 5                 124147003.189 5  96737957.45846  23624403.00046
  20950840.094 6  20950844.852 8 110097402.356 6  85790201.576 8  20950845.37546
  20407078.070 7  20407082.508 8 107239919.665 7  83563621.491 8  20407083.13347
  24468279.844 3  24468290.156 7 128581639.68313 100193530.75417  24468290.19946
  22174310.891 6  22174319.180 8 116526792.483 6  90800121.234 8  22174319.66848
  23806169.484 5  23806177.477 7 125102238.510 5  97482256.458 7  23806177.94547
  24647450.578 6  24647462.516 8 129523219.895 6 100927217.339 8  24647462.47347
  20909063.602 3                 111574758.209 3                
  19265083.250 7  19265087.340 7 103127509.961 7  80210297.607 7  19265088.223 7
  21709585.852 5  21709591.789 7 116253868.268 5  90419714.228 7  21709591.832 7
  20551613.508 7  20551617.949 7 109975871.235 7  85536795.022 7  20551618.242 7
  19703755.758 8  19703758.582 7 105179983.878 8  81806735.226 7  19703758.980 7
  23044315.250 5                 123271533.162 5                
 23  9 22 16  0 30.0000000  0 15G10G15G16G18G23G26G27G29G32R06R07R08
                                R21R22R23
  21395260.344 7  21395267.629 8 112432864.533 7  87610056.642 8  21395268.54348
  21969599.172 6  21969603.535 7 115451010.145 6  89961840.262 7  21969604.55147
  23624556.367 5                 124147846.152 5  96738614.22145  23624563.15645
  20948007.016 6  20948012.004 8 110082517.005 6  85778602.591 8  20948012.85547
  20403717.438 7  20403722.438 8 107222259.897 7  83549860.623 8  20403722.85247
  24470539.633 3  24470550.145 7 128593518.348 3 100202786.781 7  24470550.88746
  22162638.570 6  22162646.934 8 116465456.644 6  90752327.088 8  22162647.60548
  23811668.406 5  23811676.191 7 125131136.423 5  97504774.235 7  23811676.87947
  24632240.750 6  24632252.848 8 129443293.625 6 100864937.230 8  24632252.59047
  20912809.789 3                 111594746.926 3                
  19258123.680 7  19258129.570 7 103090254.205 7  80181320.909 7  19258128.855 7
  21694027.203 5  21694032.945 7 116170549.140 5  90354910.505 7  21694033.344 7
  20551605.383 7  20551609.176 7 109975826.408 7  85536760.111 7  20551610.285 7
  19695169.219 8  19695173.266 7 105134148.202 8  81771085.257 7  19695173.348 7
  23029578.031 4                 123192706.749 4                
 23  9 22 16  0 45.0000000  0 15G10G15G16G18G23G26G27G29G32R06R07R08
                                R21R22R23
  21386195.789 7  21386203.176 8 112385229.617 7  87572938.532 8  21386203.77348
  21970698.992 6  21970704.547 7 115456793.035 6  89966346.374 7  21970704.77047
  23624736.250 5                 124148789.222 5  96739349.05045  23624743.06645
  20945187.508 6  20945192.809 8 110067698.961 6  85767056.043 8  20945193.29346
  20400373.570 7  20400378.363 8 107204687.846 7  83536168.099 8  20400378.85547
  24472804.906 3  24472815.109 7 128605419.032 3 100212060.006 7  24472816.14546
  22150987.711 6  22150995.531 8 116404225.284 6  90704614.350 8  22150995.30548
  23817176.398 5  23817185.445 7 125160080.030 5  97527327.600 7  23817185.69947
  24617032.273 6  24617044.484 8 129363372.977 6 100802661.521 8  24617044.68447
  20916578.469 3                 111614851.484 3                
  19251200.102 7  19251205.230 7 103053189.670 7  80152492.939 7  19251204.680 7
  21678485.016 5  21678492.273 7 116087325.435 5  90290180.992 7  21678491.613 7
  20551618.523 7  20551623.309 7 109975896.521 7  85536814.623 7  20551623.598 7
  19686600.359 8  19686603.613 7 105088407.416 8  81735509.094 7  19686603.848 7
  23014841.828 5                 123113873.197 5                
 23  9 22 16  1  0.0000000  0 15G10G15G16G18G23G26G27G29G32R06R07R08
                                R21R22R23
  21377146.445 7  21377154.168 8 112337675.249 7  87535883.187 8  21377154.82848
  21971824.617 6  21971830.113 7 115462709.208 6  89970956.353 7  21971830.80147
  23624933.703 5                 124149831.432 5  96740161.10845  23624942.04745
  20942380.250 6  20942385.379 8 110052947.578 6  85755561.464 8  20942385.96147
  20397046.516 7  20397051.258 8 107187202.652 7  83522543.264 8  20397051.41847
  24475073.047 4  24475084.723 7 128617340.716 4 100221349.547 7  24475084.84446
  22139355.188 6  22139363.016 8 116343098.015 6  90656982.710 8  22139363.39848
  23822692.938 5  23822701.938 7 125189068.229 5  97549915.722 7  23822701.87147
  24601825.273 6  24601836.809 8 129283457.603 6 100740389.913 8  24601836.58247
  20920366.719 3                 111635070.604 3                
  19244311.359 8  19244316.348 7 103016315.645 8  80123813.133 7  19244316.105 7
  21662960.703 5  21662967.117 7 116004196.776 5  90225525.398 7  21662967.633 7
  20551652.797 7  20551658.445 7 109976081.277 7  85536958.279 7  20551658.266 7
  19678049.703 8  19678052.906 7 105042761.077 8  81700006.350 7  19678052.406 7
  23000103.141 5                 123035031.745 5                
 23  9 22 16  1 15.0000000  0 15G10G15G16G18G23G26G27G29G32R06R07R08
                                R21R22R23
  21368112.625 7  21368119.922 8 112290200.311 7  87498889.741 8  21368120.74248
  21972975.781 6  21972981.863 7 115468757.129 6  89975668.973 7  21972981.82847
  23625151.055 5                 124150971.203 5  96741049.17845  23625157.89145
  20939585.492 6  20939590.895 8 110038261.634 6  85744117.854 8  20939591.47347
  20393735.172 7  20393740.105 8 107169802.866 7  83508984.978 8  20393740.72747
  24477345.961 3  24477356.301 7 128629281.700 3 100230654.125 7  24477357.47346
  22127742.891 6  22127750.438 8 116282073.833 6  90609431.410 8  22127751.00848
  23828217.555 5  23828225.090 7 125218099.556 5  97572537.453 7  23828225.27747
  24586618.594 6  24586630.703 8 129203546.487 6 100678121.632 8  24586630.56647
  20924177.180 4                 111655402.547 4                
  19237458.148 7  19237462.684 7 102979630.796 7  80095280.464 7  19237462.965 7
  21647454.875 5  21647460.707 7 115921162.121 5  90160942.937 7  21647461.453 7
  20551708.016 7  20551714.191 7 109976378.976 7  85537189.795 7  20551713.543 7
  19669515.352 8  19669519.160 7 104997208.158 8  81664576.313 7  19669518.711 7
  22985362.453 4                 122956181.422 4                
 23  9 22 16  1 30.0000000  0 15G10G15G16G18G23G26G27G29G32R06R07R08
                                R21R22R23
  21359093.344 7  21359100.363 8 112242804.998 7  87461958.329 8  21359101.47348
  21974151.602 6  21974156.836 7 115474936.756 6  89980484.238 7  21974157.50847
  23625386.563 5                 124152208.589 5  96742013.32445  23625393.73045
  20936803.406 6  20936808.074 8 110023641.485 6  85732725.525 8  20936808.58647
  20390440.500 7  20390445.465 8 107152488.537 7  83495493.276 8  20390445.71147
  24479621.070 4  24479633.160 7 128641241.838 4 100239973.645 7  24479633.31646
  22116149.852 6  22116157.777 8 116221153.290 6  90561960.868 8  22116158.53148
  23833749.922 5  23833758.000 7 125247174.010 5  97595192.797 7  23833758.52347
  24571412.586 6  24571424.887 8 129123640.164 6 100615857.092 8  24571424.57447
  20928008.906 3                 111675846.941 3                
  19230640.594 8  19230645.758 7 102943135.344 8  80066895.119 7  19230645.410 7
  21631967.781 5  21631972.652 7 115838222.089 5  90096434.051 7  21631973.168 7
  20551784.711 7  20551790.691 7 109976790.028 7  85537509.449 7  20551790.750 7
  19660999.734 8  19661002.750 7 104951749.243 8  81629219.368 7  19661002.930 7
  22970620.953 5                 122877322.697 5                
 23  9 22 16  1 45.0000000  0 15G10G15G16G18G23G26G27G29G32R06R07R08
                                R21R22R23
  21350089.672 7  21350096.254 8 112195488.685 7  87425088.480 8  21350097.21548
  21975352.109 6  21975357.145 7 115481247.499 6  89985401.653 7  21975358.52047
  23625640.336 5                 124153542.772 5  96743052.88745  23625648.07045
  20934033.836 6  20934039.012 8 110009086.776 6  85721384.182 8  20934039.30146
  20387162.086 7  20387166.816 8 107135259.167 7  83482067.781 8  20387167.09047
  24481900.719 3  24481912.289 7 128653220.469 3 100249307.555 7  24481912.63746
  22104577.070 6  22104584.953 8 116160336.294 6  90514571.008 8  22104585.58248
  23839290.992 5  23839299.141 7 125276291.004 5  97617881.267 7  23839299.74647
  24556208.359 6  24556220.070 8 129043738.638 6 100553596.296 8  24556219.96147
  20931860.969 4                 111696403.095 4                
  19223858.641 7  19223863.902 7 102906828.813 7  80038656.720 7  19223863.590 7
  21616496.766 5  21616503.320 7 115755376.797 5  90031998.865 7  21616502.309 7
  20551882.367 7  20551888.125 7 109977314.105 7  85537917.043 7  20551888.535 7
  19652501.102 8  19652505.066 7 104906384.311 8  81593935.528 7  19652504.340 7
  22955877.414 4                 122798455.488 4                
 23  9 22 16  2  0.0000000  0 15G10G15G16G18G23G26G27G29G32R06R07R08
                                R21R22R23
  21341100.375 7  21341108.313 8 112148251.458 7  87388280.257 8  21341108.86748
  21976578.195 6  21976583.875 7 115487689.085 6  89990421.034 7  21976584.61747
  23625913.336 5                 124154973.485 5  96744167.67745  23625920.22745
  20931276.969 6  20931281.836 8 109994597.690 6  85710093.972 8  20931281.61747
  20383899.391 7  20383903.969 8 107118114.683 7  83468708.433 8  20383904.59047
  24484183.820 3  24484195.883 7 128665217.300 3 100258655.662 7  24484196.00046
  22093023.180 6  22093031.074 8 116099623.294 6  90467262.179 8  22093031.81348
  23844839.813 5  23844848.914 7 125305450.179 5  97640602.608 7  23844848.67647
  24541003.805 6  24541015.555 8 128963842.253 6 100491339.513 8  24541015.71547
  20935733.141 3                 111717070.352 3                
  19217110.906 8  19217117.195 7 102870711.537 8  80010565.509 7  19217116.641 7
  21601042.992 5  21601049.828 7 115672626.875 5  89967637.860 7  21601049.285 7
  20552001.586 7  20552007.480 7 109977951.371 7  85538412.644 7  20552007.887 7
  19644019.984 7  19644024.270 7 104861113.787 7  81558725.124 7  19644024.070 7
  22941132.125 4                 122719579.930 4                
 23  9 22 16  2 15.0000000  0 15G10G15G16G18G23G26G27G29G32R06R07R08
                                R21R22R23
  21332126.781 7  21332133.844 8 112101094.102 7  87351534.260 8  21332134.87548
  21977828.797 6  21977835.051 7 115494261.834 6  89995542.616 7  21977835.76647
  23626203.492 5                 124156501.149 5  96745358.02045  23626211.11745
  20928532.492 6  20928537.559 8 109980174.960 6  85698855.468 8  20928537.76646
  20380653.398 7  20380658.051 8 107101055.551 7  83455415.589 8  20380658.58647
  24486470.656 3  24486481.863 7 128677232.562 3 100268018.119 7  24486482.36346
  22081489.664 6  22081498.375 8 116039015.189 6  90420035.091 8  22081498.35248
  23850396.750 5  23850405.238 7 125334651.878 5  97663357.102 7  23850405.07447
  24525801.070 6  24525812.910 8 128883952.045 6 100429087.530 8  24525813.14147
  20939629.047 3                 111737849.090 3                
  19210399.289 7  19210404.719 7 102834783.792 7  79982621.709 7  19210404.145 7
  21585608.219 5  21585614.367 7 115589973.041 5  89903351.574 7  21585614.414 7
  20552142.203 7  20552148.223 7 109978702.527 7  85538996.839 7  20552148.398 7
  19635557.938 8  19635562.281 7 104815938.719 8  81523588.955 7  19635561.117 7
  22926385.914 5                 122640697.210 5                
 23  9 22 16  2 30.0000000  0 15G10G15G16G18G23G26G27G29G32R06R07R08
                                R21R22R23
  21323168.141 7  21323175.328 8 112054017.332 7  87314851.071 8  21323176.35248
  21979105.258 6  21979110.824 7 115500966.188 6  90000766.748 7  21979111.41447
  23626513.016 5                 124158126.110 5  96746624.21045  23626519.95345
  20925800.234 6  20925805.414 8 109965819.412 6  85687669.313 8  20925805.95747
  20377423.406 7  20377428.516 8 107084082.393 7  83442189.739 8  20377428.59447
  24488760.711 4  24488771.500 7 128689266.806 4 100277395.389 7  24488772.24246
  22069976.906 6  22069984.840 8 115978513.149 6  90372890.635 8  22069985.33648
  23855961.266 5  23855970.379 7 125363896.757 5  97686145.249 7  23855970.42247
  24510599.523 6  24510611.582 8 128804069.052 6 100366841.183 8  24510611.69947
  20943541.820 3                 111758739.596 3                
  19203723.672 7  19203728.711 7 102799046.958 7  79954826.390 7  19203728.469 7
  21570191.406 5  21570198.012 7 115507416.732 5  89839141.154 7  21570198.215 7
  20552304.125 7  20552309.305 7 109979568.288 7  85539670.181 7  20552310.063 7
  19627113.367 7  19627115.738 7 104770859.994 7  81488527.725 7  19627116.223 7
  22911639.602 5                 122561808.182 5                
 23  9 22 16  2 45.0000000  0 15G10G15G16G18G23G26G27G29G32R06R07R08
                                R21R22R23
  21314224.617 7  21314232.348 8 112007019.843 7  87278229.663 8  21314233.02048
  21980405.094 6  21980411.492 7 115507800.431 6  90006092.104 7  21980411.96147
  23626840.391 5                 124159846.241 5  96747964.51145  23626846.89845
  20923081.461 6  20923086.793 8 109951529.600 6  85676534.380 8  20923086.73047
  20374209.563 7  20374214.746 8 107067193.521 7  83429029.574 8  20374214.91047
  24491054.227 4  24491064.297 7 128701318.079 4 100286785.922 7  24491065.14146
  22058484.328 6  22058491.789 8 115918115.869 6  90325827.834 8  22058492.31648
  23861535.125 5  23861543.422 7 125393182.944 5  97708965.560 7  23861544.05547
  24495399.430 6  24495411.512 8 128724192.073 6 100304599.517 8  24495411.86747
  20947477.102 3                 111779739.742 3                
  19197083.578 7  19197088.707 7 102763499.049 7  79927178.012 7  19197088.070 7
  21554791.438 5  21554799.258 7 115424956.650 5  89775005.564 7  21554798.871 7
  20552488.141 7  20552493.051 7 109980547.060 7  85540431.424 7  20552492.988 7
  19618685.742 7  19618689.188 7 104725876.569 7  81453540.619 7  19618689.258 7
  22896888.969 5                 122482911.630 5                
 23  9 22 16  3  0.0000000  0 15G10G15G16G18G23G26G27G29G32R06R07R08
                                R21R22R23
  21305296.727 7  21305304.445 8 111960102.725 7  87241670.870 8  21305305.52348
  21981730.797 6  21981736.328 7 115514765.609 6  90011519.480 7  21981737.24247
  23627185.578 5                 124161663.014 5  96749380.18545  23627192.62545
  20920374.586 6  20920379.879 8 109937307.015 6  85665451.847 8  20920380.50846
  20371012.148 7  20371016.840 8 107050390.162 7  83415936.026 8  20371017.21947
  24493350.500 4  24493361.301 7 128713387.44714 100296190.57717  24493361.92646
  22047011.180 6  22047018.820 8 115857825.087 6  90278848.003 8  22047019.23448
  23867116.602 5  23867125.391 7 125422511.698 5  97731819.029 7  23867125.11747
  24480201.195 6  24480213.047 8 128644322.854 6 100242363.909 8  24480212.92647
  20951434.961 3                 111800850.599 3                
  19190477.828 7  19190483.211 7 102728141.503 7  79899677.692 7  19190482.859 7
  21539412.250 5  21539419.145 7 115342594.411 5  89710946.067 7  21539418.133 7
  20552691.266 7  20552697.551 7 109981640.392 7  85541281.754 7  20552697.488 7
  19610277.313 7  19610279.965 7 104680990.087 7  81418628.918 7  19610281.133 7
  22882139.430 5                 122404009.050 5                
 23  9 22 16  3 15.0000000  0 15G10G15G16G18G23G26G27G29G32R06R07R08
                                R21R22R23
  21296384.148 7  21296392.031 8 111913266.735 7  87205175.303 8  21296392.57848
  21983080.813 6  21983087.848 7 115521862.414 6  90017049.418 7  21983088.24647
  23627549.953 5                 124163576.646 5  96750871.23745  23627556.46145
  20917681.398 6  20917686.070 8 109923152.498 6  85654422.340 8  20917686.65247
  20367831.055 7  20367835.250 8 107033672.990 7  83402909.652 8  20367835.72347
  24495650.898 4  24495662.137 7 128725475.415 4 100305609.711 7  24495662.58646
  22035558.055 6  22035566.262 8 115797641.891 6  90231952.005 8  22035566.50448
  23872705.563 5  23872713.219 7 125451883.490 5  97754706.076 7  23872713.71947
  24465004.234 6  24465015.875 8 128564462.499 6 100180135.212 8  24465016.16847
  20955410.422 3                 111822072.424 3                
  19183908.406 7  19183913.703 7 102692975.229 7  79872326.162 7  19183913.434 7
  21524049.242 6  21524056.570 7 115260331.879 6  89646964.112 7  21524055.910 7
  20552917.109 7  20552921.867 7 109982849.072 7  85542221.804 7  20552922.742 7
  19601886.734 8  19601890.230 7 104636201.563 8  81383793.401 7  19601890.559 7
  22867388.977 5                 122325101.649 5                
 23  9 22 16  3 30.0000000  0 15G10G15G16G18G23G26G27G29G32R06R07R08
                                R21R22R23
  21287487.508 7  21287494.266 8 111866512.353 7  87168743.326 8  21287495.66848
  21984456.438 6  21984462.457 7 115529090.754 6  90022681.843 7  21984462.64547
  23627932.828 5                 124165587.447 5  96752438.07345  23627939.49645
  20915000.766 6  20915006.043 8 109909066.468 6  85643446.187 8  20915006.26246
  20364666.086 7  20364670.820 8 107017042.127 7  83389950.527 8  20364670.92247
  24497954.336 3  24497965.902 7 128737581.789 3 100315043.177 7  24497966.85946
  22024126.148 5  22024134.332 8 115737566.963 5  90185140.375 8  22024134.78948
  23878302.906 5  23878310.875 7 125481298.234 5  97777626.582 7  23878311.85947
  24449808.797 6  24449819.961 7 128484611.628 6 100117913.892 7  24449820.82047
  20959408.914 4                 111843404.868 4                
  19177375.305 8  19177380.176 7 102658000.522 8  79845123.604 7  19177379.563 7
  21508707.008 5  21508713.020 7 115178169.121 5  89583059.774 7  21508712.477 7
  20553164.844 7  20553170.852 7 109984173.528 7  85543251.908 7  20553170.320 7
  19593515.109 7  19593517.875 7 104591511.790 7  81349034.660 7  19593518.164 7
  22852637.883 5                 122246190.153 5                
 23  9 22 16  3 45.0000000  0 15G10G15G16G18G23G26G27G29G32R06R07R08
                                R21R22R23
  21278605.414 7  21278612.633 8 111819838.659 7  87132374.218 8  21278613.80148
  21985857.219 6  21985863.449 7 115536449.494 6  90028415.891 7  21985863.21947
  23628334.234 5                 124167694.073 5  96754079.52945  23628340.89545
  20912333.180 6  20912338.223 8 109895048.110 6  85632522.783 8  20912338.58647
  20361517.516 7  20361522.422 8 107000496.579 7  83377057.883 8  20361522.99247
  24500260.992 3  24500273.285 7 128749705.515 3 100324490.148 7  24500273.88346
  22012714.938 5  22012722.613 8 115677599.692 5  90138412.633 8  22012723.34848
  23883908.563 5  23883917.191 7 125510754.791 5  97800579.637 7  23883917.13747
  24434614.852 6  24434626.527 7 128404769.728 6 100055699.560 7  24434627.30147
  20963426.594 3                 111864846.760 3                
  19170877.352 7  19170882.699 7 102623216.361 7  79818069.258 7  19170881.938 7
  21493382.133 6  21493388.688 7 115096106.031 6  89519232.968 7  21493387.910 7
  20553434.453 7  20553439.641 7 109985612.887 7  85544371.376 7  20553440.281 7
  19585161.086 8  19585164.695 7 104546920.164 8  81314352.292 7  19585164.863 7
  22837884.820 5                 122167273.642 5                
 23  9 22 16  4  0.0000000  0 15G10G15G16G18G23G26G27G29G32R06R07R08
                                R21R22R23
  21269739.070 7  21269746.422 8 111773246.356 7  87096068.544 8  21269747.46148
  21987282.094 6  21987287.105 7 115543939.289 6  90034252.051 7  21987288.52347
  23628752.859 5                 124169896.909 5  96755795.97746  23628759.74646
  20909678.547 6  20909684.039 8 109881098.320 6  85621652.801 8  20909684.48046
  20358385.578 7  20358389.723 8 106984036.974 7  83364232.197 8  20358390.19547
  24502571.945 4  24502584.262 7 128761846.989 4 100333950.941 7  24502584.35546
  22001324.117 5  22001331.824 8 115617741.194 5  90091769.650 8  22001332.44548
  23889521.469 5  23889530.051 7 125540253.876 5  97823565.834 7  23889530.61347
  24419423.422 6  24419434.789 7 128324937.871 6  99993493.065 7  24419435.26247
  20967464.797 3                 111886398.400 3                
  19164415.289 8  19164419.742 7 102588623.698 8  79791163.851 7  19164419.945 7
  21478075.781 6  21478081.574 7 115014143.605 6  89455484.437 7  21478081.266 7
  20553724.953 7  20553730.371 7 109987167.945 7  85545580.846 7  20553729.957 7
  19576826.305 8  19576829.828 7 104502427.899 8  81279747.196 7  19576829.902 7
  22823131.219 5                 122088353.486 5                
 23  9 22 16  4 15.0000000  0 15G10G15G16G18G23G26G27G29G32R06R07R08
                                R21R22R23
  21260888.328 7  21260895.977 8 111726734.848 7  87059825.812 8  21260896.85248
  21988732.906 6  21988738.063 7 115551558.947 6  90040189.418 7  21988738.72347
  23629189.992 5                 124172195.041 5  96757586.67645  23629197.67645
  20907037.086 6  20907042.340 8 109867216.518 6  85610835.799 8  20907042.87547
  20355269.648 7  20355274.020 8 106967662.478 7  83351472.845 8  20355274.84447
  24504885.516 4  24504898.117 7 128774005.181 4 100343424.765 7  24504898.76246
  21989954.375 6  21989962.031 8 115557991.150 6  90045211.176 8  21989962.27048
  23895143.359 4  23895152.172 7 125569794.282 4  97846584.230 7  23895153.28947
  24404234.000 5  24404245.652 7 128245115.808 5  99931294.196 7  24404245.60947
  20971524.938 3                 111908058.698 3                
  19157988.570 7  19157993.520 7 102554221.642 7  79764406.708 7  19157992.668 7
  21462788.586 6  21462795.402 7 114932281.826 6  89391814.192 7  21462794.742 7
  20554037.258 7  20554041.000 7 109988838.041 7  85546879.806 7  20554041.523 6
  19568509.883 8  19568513.832 7 104458034.682 8  81245219.139 7  19568513.867 7
  22808378.594 5                 122009429.121 5                
 23  9 22 16  4 30.0000000  0 15G10G15G16G18G23G26G27G29G32R06R07R08
                                R21R22R23
  21252053.313 7  21252059.656 8 111680305.513 7  87023647.118 8  21252061.30948
  21990207.484 6  21990212.555 7 115559309.537 6  90046228.799 7  21990213.35547
  23629645.672 5                 124174589.535 5  96759452.48145  23629653.18445
  20904408.609 6  20904414.652 8 109853404.103 6  85600072.860 8  20904414.57446
  20352170.164 7  20352175.090 8 106951374.288 7  83338780.733 8  20352175.47347
  24507202.766 4  24507215.324 7 128786181.172 4 100352912.459 7  24507215.50846
  21978605.148 5  21978613.414 8 115498351.185 5  89998738.476 8  21978613.75848
  23900772.336 4  23900781.699 7 125599377.253 4  97869635.841 7  23900782.20746
  24389045.672 5  24389057.727 7 128165305.109 5  99869104.200 7  24389058.08247
  20975604.750 3                 111929828.371 3                
  19151598.180 7  19151602.613 7 102520011.909 7  79737799.133 7  19151602.535 7
  21447520.102 6  21447527.035 7 114850522.036 6  89328223.279 7  21447526.727 7
  20554369.930 7  20554375.559 7 109990624.798 7  85548269.482 7  20554375.848 7
  19560213.219 8  19560216.973 7 104413741.994 8  81210769.267 7  19560216.465 7
  22793623.031 5                 121930502.155 5                
 23  9 22 16  4 45.0000000  0 15G10G15G16G18G23G26G27G29G32R06R07R08
                                R21R22R23
  21243233.180 7  21243240.746 8 111633956.955 7  86987531.358 8  21243241.30548
  21991706.430 6  21991712.656 7 115567189.535 6  90052369.019 7  21991713.33247
  23630119.477 5                 124177078.736 5  96761392.06946  23630126.25046
  20901792.984 6  20901798.250 8 109839660.023 6  85589363.176 8  20901798.87546
  20349086.586 7  20349091.250 8 106935171.117 7  83326154.872 8  20349091.69547
  24509523.969 4  24509535.238 7 128798373.359 4 100362412.794 7  24509535.78546
  21967276.164 6  21967285.156 8 115438820.441 6  89952350.882 8  21967285.21948
  23906410.891 5  23906419.535 7 125629001.503 5  97892719.526 7  23906419.79347
  24373860.094 5  24373871.699 8 128085504.997 5  99806922.457 8  24373871.98447
  20979704.734 3                 111951705.847 3                
  19145242.383 8  19145248.246 7 102485992.839 8  79711339.860 7  19145246.680 7
  21432271.172 6  21432276.883 7 114768863.869 6  89264711.402 7  21432277.160 7
  20554725.891 7  20554730.887 7 109992526.622 7  85549748.649 7  20554731.527 6
  19551933.953 7  19551937.102 7 104369549.104 7  81176397.024 7  19551937.012 7
  22778868.180 5                 121851571.808 5                
 23  9 22 16  5  0.0000000  0 15G10G15G16G18G23G26G27G29G32R06R07R08
                                R21R22R23
  21234428.477 7  21234435.953 8 111587688.247 7  86951477.821 8  21234436.68848
  21993231.023 6  21993236.133 7 115575197.869 6  90058609.238 7  21993237.07047
  23630610.875 5                 124179661.306 5  96763404.43546  23630617.46546
  20899190.547 6  20899195.488 8 109825983.335 6  85578706.005 8  20899195.67647
  20346019.125 7  20346023.941 8 106919051.780 7  83313594.339 8  20346024.56647
  24511846.328 4  24511858.527 7 128810580.465 4 100371924.752 7  24511858.46146
  21955969.438 6  21955976.746 8 115379398.235 6  89906047.871 8  21955977.71148
  23912054.250 4  23912063.789 7 125658665.601 4  97915834.344 7  23912064.65646
  24358676.648 5  24358688.492 7 128005714.846 5  99744748.458 7  24358689.00047
  20983824.719 3                 111973689.599 3                
  19138922.969 8  19138928.727 7 102452163.594 8  79685028.221 7  19138927.871 7
  21417040.930 6  21417046.582 7 114687306.470 6  89201277.885 7  21417046.977 7
  20555103.203 7  20555107.535 7 109994542.671 7  85551316.656 7  20555108.648 7
  19543673.352 8  19543676.918 7 104325455.260 8  81142101.799 7  19543677.293 7
  22764111.922 5                 121772637.078 5                
 23  9 22 16  5 15.0000000  0 15G10G15G16G18G23G26G27G29G32R06R07R08
                                R21R22R23
  21225639.234 7  21225646.844 8 111541500.779 7  86915487.598 8  21225647.63748
  21994779.625 6  21994784.918 7 115583335.483 6  90064950.202 7  21994785.54747
  23631120.750 5                 124182338.174 5  96765490.26745  23631127.73045
  20896600.750 6  20896605.977 8 109812375.363 6  85568102.373 8  20896606.04347
  20342967.930 7  20342972.727 8 106903017.381 7  83301099.988 8  20342973.11747
  24514172.414 5  24514183.875 7 128822803.281 5 100381448.956 7  24514184.25847
  21944682.609 6  21944690.660 8 115320086.118 6  89859830.631 8  21944690.79348
  23917707.961 4  23917718.066 7 125688370.488 4  97938980.878 7  23917717.69547
  24343495.320 5  24343506.695 7 127925936.084 5  99682583.353 7  24343507.30946
  20987964.016 3                 111995780.391 3                
  19132638.492 7  19132643.832 7 102418525.578 7  79658865.330 7  19132643.465 7
  21401830.438 6  21401837.195 7 114605851.588 6  89137924.117 7  21401836.652 7
  20555500.781 7  20555505.434 7 109996674.352 7  85552974.599 7  20555506.781 6
  19535431.531 8  19535436.117 7 104281462.058 8  81107884.863 7  19535435.676 7
  22749355.625 5                 121693699.682 5                
 23  9 22 16  5 30.0000000  0 15G10G15G16G18G23G26G27G29G32R06R07R08
                                R21R22R23
  21216865.383 7  21216872.938 8 111495393.533 7  86879559.884 8  21216873.72348
  21996352.500 6  21996358.406 7 115591601.155 6  90071390.956 7  21996358.93047
  23631648.281 5                 124185108.396 5  96767648.84646  23631654.95346
  20894024.563 6  20894029.801 8 109798835.400 6  85557551.745 8  20894030.26246
  20339932.891 7  20339937.621 8 106887066.935 7  83288671.055 8  20339938.10547
  24516501.203 5  24516513.246 7 128835040.876 5 100390984.654 7  24516513.41846
  21933416.313 6  21933424.672 8 115260883.650 6  89813698.831 8  21933424.87548
  23923368.469 4  23923377.063 7 125718115.256 4  97962158.526 7  23923377.81346
  24328315.430 4  24328327.281 7 127846168.438 4  99620426.884 7  24328327.36346
  20992124.359 3                 112017977.242 3                
  19126390.898 7  19126395.996 7 102385077.983 7  79632850.530 7  19126395.395 7
  21386637.766 6  21386643.859 7 114524498.853 6  89074649.795 7  21386643.668 7
  20555920.961 7  20555925.191 7 109998920.892 7  85554721.875 7  20555926.066 6
  19527209.141 8  19527212.766 7 104237569.154 8  81073745.943 7  19527212.883 7
  22734599.305 5                 121614759.022 5                
 23  9 22 16  5 45.0000000  0 15G10G15G16G18G23G26G27G29G32R06R07R08
                                R21R22R23
  21208107.188 7  21208113.957 8 111449367.810 7  86843695.694 8  21208114.95748
  21997949.742 6  21997956.289 7 115599996.128 6  90077932.438 7  21997956.73847
  23632192.938 5                 124187972.873 5  96769880.84845  23632199.68445
  20891461.555 6  20891466.758 8 109785364.862 6  85547055.200 8  20891467.02046
  20336913.711 7  20336918.086 8 106871201.647 7  83276308.482 8  20336918.83647
  24518832.313 4  24518844.813 7 128847294.070 4 100400532.544 7  24518844.90247
  21922172.188 6  21922179.590 8 115201792.372 6  89767653.680 8  21922180.02748
  23929036.273 4  23929045.215 7 125747900.897 4  97985368.019 7  23929045.90247
  24313139.250 4  24313150.129 7 127766413.373 4  99558280.255 7  24313150.49646
  20996303.375 3                 112040280.660 3                
  19120178.188 8  19120183.402 7 102351821.774 8  79606984.591 7  19120182.957 7
  21371465.414 6  21371472.586 7 114443249.948 6  89011456.222 7  21371471.574 7
  20556362.375 7  20556366.727 7 110001283.638 7  85556559.526 7  20556367.602 6
  19519005.656 7  19519010.656 7 104193778.076 7  81039686.217 7  19519009.965 7
  22719841.125 5                 121535816.619 5                
 23  9 22 16  6  0.0000000  0 15G10G15G16G18G23G26G27G29G32R06R07R08
                                R21R22R23
  21199364.422 7  21199371.668 8 111403423.240 7  86807894.731 8  21199372.27348
  21999572.336 6  21999578.359 7 115608519.445 6  90084573.945 7  21999578.76647
  23632755.969 5                 124190930.929 5  96772185.81245  23632762.62945
  20888911.047 6  20888915.930 8 109771963.421 6  85536612.510 8  20888916.50847
  20333910.375 7  20333915.512 8 106855420.955 7  83264011.818 8  20333916.00847
  24521167.703 5  24521179.340 7 128859562.140 5 100410091.987 7  24521179.65247
  21910948.734 6  21910955.949 8 115142812.313 6  89721695.190 8  21910956.96948
  23934711.758 4  23934721.094 7 125777726.687 4  98008608.788 7  23934721.86747
  24297963.516 4  24297975.730 7 127686670.888 4  99496143.421 7  24297976.14146
  21000502.961 3                 112062689.823 3                
  19114001.438 7  19114006.727 7 102318756.864 7  79581267.435 7  19114006.301 7
  21356311.648 6  21356317.676 7 114362104.742 6  88948343.325 7  21356317.953 7
  20556825.109 7  20556830.898 7 110003762.241 7  85558487.313 7  20556831.070 6
  19510820.922 7  19510825.250 7 104150088.745 7  81005705.612 7  19510824.805 7
  22705082.758 5                 121456872.557 5                
 23  9 22 16  6 15.0000000  0 15G10G15G16G18G23G26G27G29G32R06R07R08
                                R21R22R23
  21190636.383 7  21190643.285 8 111357557.870 7  86772155.489 8  21190643.89548
  22001218.016 6  22001223.664 7 115617168.926 6  90091313.765 7  22001224.23447
  23633336.320 5                 124193980.188 5  96774561.81145  23633343.14845
  20886373.734 6  20886379.086 8 109758629.124 6  85526222.128 8  20886379.57047
  20330922.992 7  20330928.141 8 106839722.673 7  83251779.385 8  20330928.44947
  24523503.992 4  24523515.980 7 128871842.824 4 100419661.295 7  24523516.52746
  21899745.602 6  21899753.367 8 115083941.658 6  89675821.965 8  21899754.19948
  23940395.609 4  23940404.594 7 125807590.164 4  98031878.924 7  23940404.71547
  24282791.047 4  24282802.004 7 127606939.343 4  99434015.104 7  24282803.27746
  21004722.141 3                 112085202.148 3                
  19107860.094 7  19107865.273 7 102285880.881 7  79555697.229 7  19107864.422 7
  21341176.414 6  21341183.711 7 114281061.738 6  88885309.890 7  21341183.285 7
  20557310.648 7  20557315.285 7 110006354.592 7  85560503.563 7  20557316.043 7
  19502654.766 7  19502658.445 7 104106499.568 7  80971802.923 7  19502658.637 7
  22690324.898 5                 121377924.990 5                
 23  9 22 16  6 30.0000000  0 15G10G15G16G18G23G26G27G29G32R06R07R08
                                R21R22R23
  21181923.289 7  21181930.836 8 111311773.964 7  86736479.725 8  21181931.61748
  22002888.164 6  22002893.660 7 115625946.705 6  90098153.542 7  22002894.91447
  23633934.641 5                 124197122.544 5  96777010.32945  23633941.44145
  20883849.406 6  20883854.746 8 109745364.416 6  85515885.973 8  20883855.30547
  20327952.219 7  20327956.934 8 106824109.022 7  83239612.883 8  20327957.70347
  24525843.641 5  24525855.391 7 128884138.031 5 100429241.865 7  24525856.22747
  21888564.250 6  21888572.109 8 115025183.076 6  89630036.046 8  21888572.91848
  23946085.133 4  23946094.141 7 125837493.639 4  98055180.202 7  23946095.22747
  24267620.836 4  24267632.977 8 127527221.328 4  99371897.337 8  24267633.33246
  21008961.469 3                 112107819.652 3                
  19101754.008 8  19101759.227 7 102253196.447 8  79530276.011 7  19101758.836 7
  21326062.102 6  21326069.520 7 114200123.891 6  88822358.269 7  21326069.328 7
  20557816.727 7  20557821.156 7 110009062.948 7  85562610.023 7  20557822.148 6
  19494509.703 8  19494513.359 7 104063013.097 8  80937980.102 7  19494513.152 7
  22675565.914 5                 121298976.649 5                
 23  9 22 16  6 45.0000000  0 15G10G15G16G18G23G26G27G29G32R06R07R08
                                R21R22R23
  21173226.742 7  21173233.617 8 111266070.234 7  86700866.435 8  21173234.55548
  22004582.680 6  22004588.879 7 115634850.889 6  90105091.814 7  22004589.37947
  23634549.828 5                 124200356.428 5  96779530.25046  23634556.87946
  20881338.438 6  20881343.176 8 109732167.978 6  85505603.015 8  20881344.25046
  20324996.555 7  20325001.723 8 106808578.408 7  83227511.097 8  20325002.08647
  24528186.977 5  24528198.336 7 128896446.057 5 100438832.449 7  24528198.50047
  21877403.969 6  21877410.836 8 114966535.542 6  89584336.657 8  21877411.76648
  23951783.578 5  23951792.375 7 125867435.467 5  98078511.404 7  23951792.91447
  24252454.359 4  24252465.645 8 127447515.871 4  99309789.328 8  24252465.59447
  21013219.359 3                 112130540.539 3                
  19095683.773 8  19095689.738 7 102220701.955 8  79505002.503 7  19095689.020 7
  21310968.313 6  21310974.738 7 114119289.726 6  88759487.285 7  21310974.195 7
  20558344.633 7  20558348.309 7 110011886.170 7  85564805.839 7  20558349.066 6
  19486382.047 8  19486385.063 7 104019628.311 8  80904236.389 7  19486385.504 7
  22660807.500 5                 121220026.194 5                
 23  9 22 16  7  0.0000000  0 15G10G15G16G18G23G26G27G29G32R06R07R08
                                R21R22R23
  21164544.773 7  21164552.543 8 111220446.523 7  86665315.498 8  21164552.84848
  22006301.016 6  22006306.438 7 115643881.509 6  90112128.618 7  22006307.98847
  23635182.672 5                 124203681.418 5  96782121.04546  23635189.13346
  20878840.242 6  20878845.090 8 109719039.950 6  85495373.357 8  20878845.83246
  20322057.469 6  20322061.980 8 106793130.801 6  83215473.980 8  20322062.62947
  24530531.125 5  24530542.363 7 128908766.652 5 100448432.828 7  24530542.93447
  21866265.016 6  21866273.379 8 114907999.416 6  89538724.090 8  21866273.53948
  23957488.883 5  23957497.633 7 125897415.363 5  98101872.272 7  23957498.10547
  24237288.688 5  24237300.164 8 127367823.333 5  99247691.404 8  24237300.50047
  21017495.688 3                 112153364.210 3                
  19089649.117 7  19089654.813 7 102188397.355 7  79479876.700 7  19089653.844 7
  21295891.867 6  21295897.863 7 114038559.840 6  88696697.401 7  21295897.438 7
  20558893.039 7  20558897.102 7 110014824.213 7  85567090.956 7  20558897.863 6
  19478273.680 7  19478276.574 7 103976345.682 7  80870572.110 7  19478276.785 7
  22646047.047 5                 121141073.972 5                
 23  9 22 16  7 15.0000000  0 15G10G15G16G18G23G26G27G29G32R06R07R08
                                R21R22R23
  21155878.438 7  21155885.273 8 111174904.397 7  86629828.131 8  21155886.07848
  22008044.125 6  22008050.078 7 115653039.704 6  90119264.822 7  22008050.39547
  23635832.688 5                 124207098.806 5  96784783.94645  23635840.33245
  20876355.438 7  20876360.547 8 109705981.966 7  85485198.291 8  20876360.94547
  20319133.977 7  20319138.699 8 106777767.535 7  83203502.586 8  20319139.14547
  24532878.359 5  24532890.328 8 128921101.005 5 100458043.928 8  24532890.57847
  21855147.625 6  21855155.816 8 114849576.482 6  89493199.729 8  21855155.94948
  23963201.453 5  23963210.762 7 125927434.674 5  98125263.820 7  23963210.41047
  24222126.984 5  24222137.297 8 127288145.563 5  99185604.967 8  24222137.93847
  21021792.570 3                 112176291.717 3                
  19083650.336 7  19083656.059 7 102156284.235 7  79454899.830 7  19083655.188 7
  21280836.563 6  21280843.141 7 113957936.563 6  88633990.436 7  21280842.738 7
  20559463.805 7  20559468.570 7 110017878.597 7  85569466.569 7  20559469.098 6
  19470184.703 7  19470189.418 7 103933166.845 7  80836988.580 7  19470187.973 7
  22631289.367 5                 121062122.019 5                
 23  9 22 16  7 30.0000000  0 15G10G15G16G18G23G26G27G29G32R06R07R08
                                R21R22R23
  21147227.531 7  21147234.281 8 111129443.952 7  86594404.420 8  21147235.37148
  22009810.172 6  22009817.516 7 115662325.159 6  90126500.202 7  22009817.66847
  23636501.094 5                 124210608.372 5  96787518.63545  23636507.48045
  20873883.922 6  20873889.004 8 109692994.144 6  85475077.897 8  20873889.19947
  20316226.359 7  20316231.113 8 106762488.527 7  83191596.848 8  20316231.60547
  24535228.430 5  24535239.422 7 128933448.818 5 100467665.528 7  24535239.94547
  21844051.336 6  21844059.480 8 114791267.162 6  89447763.898 8  21844059.94548
  23968920.813 5  23968930.609 8 125957493.036 5  98148685.828 8  23968931.20347
  24206967.773 5  24206978.164 8 127208482.973 5  99123530.353 8  24206978.75447
  21026109.633 3                 112199322.818 3                
  19077686.836 7  19077692.805 7 102124362.829 7  79430072.076 7  19077692.043 7
  21265800.328 6  21265807.445 7 113877420.048 6  88571366.515 7  21265806.316 7
  20560056.820 7  20560061.438 7 110021049.508 7  85571932.796 7  20560062.199 7
  19462115.336 8  19462118.461 7 103890092.496 8  80803486.299 7  19462118.492 7
  22616529.492 5                 120983170.504 5                
 23  9 22 16  7 45.0000000  0 15G10G15G16G18G23G26G27G29G32R06R07R08
                                R21R22R23
  21138592.336 7  21138599.215 8 111084064.441 7  86559043.771 8  21138600.24248
  22011602.242 6  22011608.359 7 115671737.113 6  90133834.135 7  22011608.73447
  23637185.758 5                 124214209.212 5  96790324.43845  23637192.39545
  20871425.227 6  20871430.953 8 109680076.006 6  85465011.795 8  20871431.18047
  20313334.859 7  20313340.168 8 106747293.063 7  83179756.212 8  20313340.32447
  24537580.250 5  24537591.973 8 128945809.219 5 100477296.939 8  24537592.35947
  21832976.891 6  21832985.098 8 114733071.173 6  89402416.372 8  21832985.82448
  23974648.719 5  23974657.770 7 125987589.787 5  98172137.735 7  23974658.02747
  24191810.961 5  24191821.770 8 127128835.329 5  99061467.387 8  24191822.05547
  21030443.539 4                 112222456.341 4                
  19071759.281 7  19071764.781 7 102092632.187 7  79405392.683 7  19071763.406 7
  21250783.523 6  21250790.344 7 113797009.970 6  88508825.361 7  21250790.270 7
  20560671.258 7  20560675.410 7 110024336.394 7  85574489.242 7  20560676.754 6
  19454065.406 7  19454068.859 7 103847122.180 7  80770064.938 7  19454069.270 7
  22601770.531 5                 120904219.296 5                
 23  9 22 16  8  0.0000000  0 15G10G15G16G18G23G26G27G29G32R06R07R08
                                R21R22R23
  21129972.617 7  21129979.488 8 111038767.663 7  86523747.586 8  21129980.33248
  22013417.656 6  22013423.598 7 115681276.854 6  90141267.655 7  22013424.08647
  23637888.336 5                 124217902.535 5  96793202.30046  23637895.42246
  20868980.586 6  20868986.262 8 109667229.283 6  85455001.349 8  20868986.63746
  20310459.688 7  20310464.379 8 106732182.604 7  83167981.811 8  20310464.70747
  24539935.219 5  24539947.250 8 128958183.456 5 100486939.116 8  24539947.85247
  21821925.047 6  21821933.020 8 114674990.436 6  89357158.647 8  21821933.17648
  23980382.914 5  23980391.898 8 126017726.261 5  98195620.585 8  23980392.74247
  24176657.539 5  24176667.934 8 127049204.560 5  98999417.553 8  24176668.60547
  21034797.609 3                 112245693.322 3                
  19065867.852 7  19065873.391 7 102061094.170 7  79380863.116 7  19065872.820 7
  21235789.242 6  21235795.332 7 113716708.433 6  88446368.646 7  21235795.027 7
  20561307.844 7  20561312.336 7 110027740.836 7  85577137.106 7  20561313.215 7
  19446035.383 7  19446038.563 7 103804257.901 7  80736726.050 7  19446038.734 7
  22587011.164 5                 120825270.192 5                
 23  9 22 16  8 15.0000000  0 15G10G15G16G18G23G26G27G29G32R06R07R08
                                R21R22R23
  21121368.359 7  21121375.586 8 110993553.087 7  86488515.461 8  21121376.27048
  22015256.836 6  22015262.055 7 115690943.824 6  90148800.313 7  22015263.64847
  23638608.813 5                 124221687.482 5  96796151.56445  23638616.40645
  20866549.914 6  20866555.125 8 109654453.497 6  85445046.172 8  20866555.81646
  20307600.008 7  20307604.832 8 106717156.507 7  83156273.155 8  20307605.17647
  24542292.531 5  24542304.039 8 128970570.664 5 100496591.405 8  24542304.62947
  21810894.625 6  21810901.980 8 114617024.759 6  89311990.604 8  21810902.46548
  23986125.266 6  23986134.457 8 126047901.459 6  98219133.624 8  23986134.80947
  24161507.383 5  24161518.078 8 126969590.446 5  98937380.705 8  24161518.26247
  21039172.695 3                 112269033.129 3                
  19060011.906 8  19060017.848 7 102029747.935 8  79356482.701 7  19060016.590 7
  21220812.828 6  21220819.598 7 113636515.399 6  88383996.310 7  21220818.938 7
  20561965.047 7  20561970.504 7 110031262.289 7  85579875.972 7  20561970.797 7
  19438025.922 8  19438028.875 7 103761499.450 8  80703469.482 7  19438028.746 7
  22572252.617 5                 120746322.793 5                
 23  9 22 16  8 30.0000000  0 15G10G15G16G18G23G26G27G29G32R06R07R08
                                R21R22R23
  21112779.945 7  21112786.473 8 110948420.378 7  86453347.120 8  21112787.43448
  22017121.102 6  22017126.480 7 115700736.906 6  90156431.222 7  22017127.23047
  23639346.742 5                 124225563.432 5  96799171.75245  23639353.93045
  20864132.289 6  20864137.805 8 109641748.409 6  85435146.076 8  20864137.99647
  20304756.695 7  20304761.395 8 106702214.212 7  83144629.803 8  20304762.07847
  24544652.281 5  24544664.727 8 128982970.238 5 100506253.313 8  24544664.94547
  21799886.000 6  21799893.637 8 114559174.080 6  89266912.147 8  21799893.82848
  23991874.750 6  23991884.266 8 126078114.901 6  98242676.451 8  23991885.16047
  24146360.508 6  24146371.215 8 126889993.027 6  98875356.853 8  24146371.44547
  21043565.195 3                 112292474.585 3                
  19054191.797 8  19054197.570 7 101998593.334 8  79332251.352 7  19054197.184 7
  21205857.258 6  21205864.059 7 113556430.839 6  88321708.350 7  21205863.520 7
  20562644.883 7  20562650.180 7 110034900.529 7  85582705.683 7  20562650.117 7
  19430034.922 8  19430039.605 7 103718846.903 8  80670295.272 7  19430038.473 7
  22557494.602 5                 120667377.459 5                
 23  9 22 16  8 45.0000000  0 15G10G15G16G18G23G26G27G29G32R06R07R08
                                R21R22R23
  21104206.984 7  21104213.641 8 110903369.544 7  86418242.578 8  21104214.77048
  22019008.039 6  22019013.734 7 115710656.313 6  90164160.589 7  22019014.70347
  23640101.336 5                 124229530.188 5  96802262.63345  23640109.35945
  20861727.766 6  20861733.016 8 109629114.296 6  85425301.294 8  20861733.62147
  20301928.742 6  20301933.523 8 106687355.798 6  83133051.807 8  20301933.96947
  24547013.859 5  24547025.820 8 128995381.945 5 100515924.702 8  24547026.33247
  21788898.789 6  21788906.543 8 114501438.949 6  89221923.732 8  21788907.21148
  23997631.953 6  23997641.770 8 126108366.636 6  98266249.110 8  23997641.99247
  24131216.953 6  24131227.512 8 126810412.867 6  98813346.444 8  24131227.59847
  21047977.352 4                 112316017.659 4                
  19048408.094 8  19048413.344 7 101967630.466 8  79308169.110 7  19048413.078 7
  21190922.438 6  21190928.719 7 113476455.638 6  88259505.461 7  21190928.762 7
  20563347.438 7  20563351.180 7 110038655.834 7  85585626.454 7  20563351.824 6
  19422064.930 7  19422067.688 7 103676300.588 7  80637203.678 7  19422067.594 7
  22542738.008 5                 120588434.344 5                
 23  9 22 16  9  0.0000000  0 15G10G15G16G18G23G26G27G29G32R06R07R08
                                R21R22R23
  21095649.766 7  21095657.094 8 110858401.769 7  86383202.761 8  21095657.66448
  22020919.938 6  22020926.605 7 115720702.731 6  90171988.913 7  22020926.75447
  23640873.219 5                 124233588.481 5  96805424.92945  23640881.24645
  20859337.117 6  20859342.465 8 109616552.379 6  85415512.764 8  20859342.96946
  20299117.836 7  20299122.438 8 106672582.261 7  83121539.943 8  20299123.03147
  24549378.469 5  24549389.926 8 129007806.658 5 100525606.202 8  24549390.45747
  21777934.586 6  21777942.086 8 114443820.721 6  89177026.412 8  21777942.86748
  24003395.836 6  24003404.988 8 126138657.385 6  98289852.216 8  24003405.83247
  24116075.883 6  24116086.828 8 126730851.348 6  98751350.557 8  24116087.05947
  21052410.500 3                 112339662.784 3                
  19042659.438 8  19042664.379 7 101936860.392 8  79284236.820 7  19042664.465 7
  21176009.375 6  21176015.449 7 113396591.169 6  88197388.680 7  21176015.023 7
  20564070.258 7  20564074.934 7 110042529.015 7  85588638.897 7  20564075.926 6
  19414114.898 7  19414118.770 7 103633862.147 7  80604195.990 7  19414117.945 7
  22527980.734 5                 120509494.985 5                
 23  9 22 16  9 15.0000000  0 15G10G15G16G18G23G26G27G29G32R06R07R08
                                R21R22R23
  21087108.508 7  21087115.199 8 110813516.866 7  86348227.523 8  21087116.37548
  22022856.234 6  22022862.781 7 115730875.651 6  90179915.802 7  22022862.71147
  23641662.508 5                 124237737.882 5  96808658.15745  23641670.81645
  20856960.508 6  20856966.055 8 109604062.479 6  85405780.344 8  20856967.11346
  20296322.547 7  20296327.242 8 106657893.198 7  83110093.897 8  20296327.79347
  24551744.781 5  24551757.223 8 129020243.785 5 100535297.389 8  24551757.35946
  21766992.641 6  21767000.113 8 114386319.544 6  89132220.306 8  21767001.09848
  24009167.555 6  24009176.859 8 126168986.787 6  98313485.373 8  24009177.75447
  24100940.523 6  24100951.031 8 126651308.655 6  98689369.339 8  24100950.76647
  21056857.867 3                 112363409.385 3                
  19036947.547 8  19036953.563 7 101906282.623 8  79260454.108 7  19036952.453 7
  21161115.430 6  21161121.918 7 113316837.267 6  88135357.901 7  21161121.023 7
  20564816.961 7  20564821.801 7 110046520.151 7  85591743.095 7  20564821.859 6
  19406184.789 8  19406189.266 7 103591531.622 8  80571272.249 7  19406188.254 7
  22513224.555 5                 120430559.382 5                
 23  9 22 16  9 30.0000000  0 15G10G15G16G18G23G26G27G29G32R06R07R08
                                R21R22R23
  21378375.383 7  21378382.902 8 112344137.002 7  87540918.547 8  21378383.69148
  22324608.500 6  22324614.371 7 117316593.345 6  91415539.943 7  22324614.74247
  23942262.672 5                 125817397.070 5  98039561.39645  23942270.70745
  21154390.359 6  21154395.145 8 111167064.805 6  86623704.209 8  21154395.78946
  20593336.164 7  20593341.125 8 108218708.687 7  84326313.749 8  20593341.39847
  24853905.734 4  24853918.105 8 130608111.442 4 101772596.797 8  24853918.94147
  22055866.320 6  22055874.082 8 115904358.754 6  90315108.001 8  22055874.11748
  24314738.242 6  24314747.641 8 127774771.802 6  99564746.346 8  24314747.90247
  24385600.516 6  24385610.840 8 128147209.636 6  99855006.550 8  24385610.89847
  21361120.266 3                 113987004.774 3                
  19331064.398 8  19331069.016 7 103480711.331 8  80485009.774 7  19331068.598 7
  21446035.977 6  21446041.691 7 114842574.313 6  89322042.313 7  21446042.203 7
  20865376.680 7  20865380.512 7 111654878.067 7  86842688.093 7  20865381.859 7
  19698067.500 7  19698070.746 7 105149623.874 7  81783121.772 7  19698071.008 7
  22798262.391 5                 121955319.982 5                
 23  9 22 16  9 45.0000000  0 15G10G15G16G18G23G26G27G29G32R06R07R08
                                R21R22R23
  21369866.109 7  21369872.441 8 112299416.253 7  87506071.216 8  21369873.55948
  22326591.461 6  22326598.223 7 117327017.059 6  91423662.262 7  22326599.10947
  23943086.477 5                 125821726.343 5  98042934.80645  23943094.23045
  21152040.492 6  21152045.957 8 111154717.810 6  86614083.156 8  21152046.33246
  20590572.359 7  20590577.551 8 108204186.676 7  84314997.883 8  20590578.02747
  24856276.445 5  24856288.980 7 130620570.999 5 101782305.440 7  24856289.16046
  22044968.492 6  22044975.563 8 115847091.128 6  90270483.874 8  22044976.07448
  24320523.805 6  24320533.191 8 127805176.211 6  99588437.970 8  24320534.42647
  24370471.203 6  24370481.328 8 128067704.109 6  99793054.280 8  24370481.71547
  21365608.266 3                 114010951.462 3                
  19325423.984 7  19325428.207 7 103450516.994 7  80461525.290 7  19325428.059 7
  21431183.875 6  21431189.578 7 114763041.908 6  89260183.813 7  21431189.504 7
  20866166.227 7  20866171.414 7 111659103.519 7  86845974.503 7  20866172.176 7
  19690178.258 8  19690181.523 7 105107508.799 8  81750365.597 7  19690181.336 7
  22783507.055 5                 121876391.380 5                
 23  9 22 16 10  0.0000000  0 15G10G15G16G18G23G26G27G29G32R06R07R08
                                R21R22R23
  21361371.008 7  21361378.316 8 112254776.969 7  87471287.359 8  21361379.02048
  22328599.023 6  22328603.961 7 117337565.323 6  91431881.625 7  22328605.73847
  23943927.484 5                 125826144.602 5  98046377.56545  23943934.71145
  21149704.680 6  21149709.715 8 111142442.034 6  86604517.596 8  21149710.59446
  20587824.766 7  20587829.797 8 108189747.597 7  84303746.636 8  20587830.08647
  24858650.320 4  24858662.410 8 130633040.861 4 101792022.139 8  24858662.34847
  22034092.938 6  22034100.973 8 115789940.314 6  90225950.779 8  22034101.02748
  24326317.039 6  24326326.211 8 127835617.275 6  99612158.170 8  24326327.05547
  24355345.633 6  24355355.980 8 127988217.258 6  99731116.558 8  24355355.86347
  21370113.766 3                 114034997.213 3                
  19319819.164 7  19319824.168 7 103420513.938 7  80438189.581 7  19319823.082 7
  21416352.570 6  21416357.777 7 114683620.191 6  89198411.387 7  21416358.055 7
  20866978.148 7  20866982.789 7 111663445.823 7  86849351.833 7  20866983.082 7
  19682308.656 8  19682313.063 7 105065501.407 8  81717693.189 7  19682312.047 7
  22768752.711 5                 121797466.525 5                
 23  9 22 16 10 15.0000000  0 15G10G15G16G18G23G26G27G29G32R06R07R08
                                R21R22R23
  21352892.281 7  21352899.266 8 112210219.583 7  87436567.325 8  21352899.57448
  22330629.797 6  22330636.355 7 117348238.098 6  91440198.018 7  22330637.09847
  23944784.859 5                 125830651.772 5  98049889.60245  23944793.30545
  21147382.414 7  21147387.535 8 111130237.801 7  86595007.773 8  21147388.31346
  20585093.055 7  20585097.980 8 108175391.584 7  84292560.119 8  20585098.48047
  24861024.797 5  24861037.961 8 130645520.949 5 101801746.803 8  24861037.68447
  22023240.203 6  22023247.711 8 115732906.915 6  90181509.172 8  22023248.07848
  24332116.906 6  24332126.219 8 127866094.962 6  99635906.902 8  24332127.07847
  24340223.273 6  24340233.105 8 127908749.751 6  99669193.892 8  24340233.15248
  21374638.875 3                 114059141.593 3                
  19314250.063 7  19314254.867 7 103390702.203 7  80415002.668 7  19314254.133 7
  21401542.766 6  21401547.977 7 114604310.344 6  89136725.988 7  21401547.555 6
  20867811.328 7  20867815.305 7 111667905.155 7  86852820.164 7  20867816.418 7
  19674460.102 7  19674463.020 7 105023602.450 7  81685105.120 7  19674463.191 7
  22753999.039 5                 121718545.784 5                
 23  9 22 16 10 30.0000000  0 15G10G15G16G18G23G26G27G29G32R06R07R08
                                R21R22R23
  21344428.742 7  21344435.988 8 112165743.033 7  87401910.283 8  21344436.51648
  22332684.625 6  22332690.480 7 117359033.984 6  91448610.352 7  22332691.10547
  23945658.867 5                 125835246.331 5  98053469.71045  23945667.38745
  21145073.281 6  21145079.230 8 111118104.116 6  86585552.937 8  21145079.54346
  20582376.758 7  20582380.746 8 108161117.357 7  84281437.335 8  20582381.42247
  24863402.047 5  24863414.625 8 130658009.966 5 101811478.406 8  24863414.40647
  22012408.727 6  22012416.914 8 115675990.164 6  90137158.463 8  22012417.21948
  24337923.539 6  24337932.766 7 127896607.985 6  99659683.170 7  24337933.11747
  24325104.055 6  24325114.559 8 127829300.797 6  99607285.682 8  24325114.54747
  21379180.797 3                 114083383.169 3                
  19308715.938 7  19308722.457 7 103361080.728 7  80391963.736 7  19308720.938 7
  21386751.328 6  21386757.500 7 114525111.199 6  89075126.685 7  21386756.840 7
  20868666.844 7  20868671.473 7 111672480.500 7  86856378.729 7  20868671.527 7
  19666630.484 8  19666633.965 7 104981811.066 8  81652600.723 7  19666634.125 7
  22739245.492 5                 121639628.211 5                
 23  9 22 16 10 45.0000000  0 15G10G15G16G18G23G26G27G29G32R06R07R08
                                R21R22R23
  21335980.586 7  21335987.418 8 112121346.901 7  87367315.903 8  21335988.16848
  22334762.008 6  22334768.641 7 117369952.292 6  91457118.059 7  22334769.27747
  23946550.414 5                 125839927.734 5  98057117.49645  23946558.60945
  21142777.680 6  21142782.945 8 111106040.735 6  86576152.876 8  21142783.40247
  20579675.836 7  20579680.406 8 108146924.453 7  84270377.903 8  20579680.80147
  24865780.492 5  24865792.082 8 130670507.140 5 101821216.366 8  24865792.67247
  22001600.445 6  22001607.750 8 115619189.974 6  90092898.580 8  22001608.23448
  24343736.242 5  24343746.309 7 127927155.748 5  99683486.516 7  24343746.84447
  24309989.664 6  24309999.703 8 127749870.423 6  99545391.944 8  24309999.68048
  21383742.344 3                 114107721.050 3                
  19303218.125 7  19303224.523 7 103331648.927 7  80369072.334 7  19303223.320 7
  21371983.102 6  21371988.223 7 114446022.823 6  89013613.529 7  21371987.797 6
  20869543.375 7  20869548.906 7 111677171.455 7  86860027.229 7  20869548.258 7
  19658822.664 8  19658825.219 7 104940127.304 8  81620180.023 7  19658825.504 7
  22724495.438 5                 121560713.985 5                
 23  9 22 16 11  0.0000000  0 15G10G15G16G18G23G26G27G29G32R06R07R08
                                R21R22R23
  21327547.117 7  21327554.090 8 112077029.818 7  87332783.123 8  21327555.28548
  22336862.320 6  22336868.500 7 117380991.380 6  91465719.885 7  22336869.37547
  23947457.430 4                 125844694.319 4  98060831.65845  23947465.71145
  21140495.523 6  21140500.406 8 111094046.280 6  86566806.526 8  21140500.62946
  20576990.219 7  20576995.098 8 108132811.277 7  84259380.609 8  20576995.45747
  24868161.219 5  24868172.398 8 130683010.717 5 101830959.356 8  24868172.85947
  21990813.563 6  21990820.828 8 115562505.316 6  90048728.726 8  21990821.43848
  24349555.648 5  24349565.543 7 127957736.528 5  99707315.577 7  24349566.16047
  24294877.852 6  24294887.824 8 127670457.497 6  99483511.812 8  24294888.03547
  21388320.008 3                 114132153.308 3                
  19297755.258 7  19297761.145 7 103302405.607 7  80346327.523 7  19297760.410 7
  21357234.023 6  21357239.492 7 114367044.261 6  88952185.797 7  21357239.422 7
  20870441.273 7  20870446.586 7 111681976.561 7  86863764.481 7  20870446.641 7
  19651032.727 7  19651037.629 7 104898549.938 7  81587842.058 7  19651036.836 7
  22709742.680 5                 121481801.943 5                
 23  9 22 16 11 15.0000000  0 15G10G15G16G18G23G26G27G29G32R06R07R08
                                R21R22R23
  21319128.977 7  21319136.375 8 112032792.248 7  87298312.295 8  21319136.95748
  22338986.734 6  22338993.195 7 117392151.460 6  91474416.011 7  22338993.35947
  23948380.711 5                 125849546.154 5  98064612.31845  23948389.18445
  21138226.211 6  21138231.254 8 111082121.442 6  86557514.418 8  21138231.91846
  20574319.594 7  20574324.633 8 108118778.248 7  84248445.774 8  20574324.86747
  24870540.031 5  24870552.602 8 130695520.952 5 101840707.505 8  24870553.15247
  21980049.008 6  21980056.520 8 115505936.938 6  90004649.471 8  21980056.95748
  24355380.797 4  24355391.297 7 127988350.679 4  99731170.630 7  24355391.87547
  24279768.859 6  24279779.570 8 127591062.914 6  99421645.962 8  24279779.39147
  21392917.219 3                 114156680.096 3                
  19292327.461 7  19292332.672 7 103273351.111 7  80323729.585 7  19292332.641 7
  21342505.922 6  21342512.055 7 114288176.242 6  88890844.021 7  21342511.746 7
  20871361.086 7  20871365.543 7 111686896.368 7  86867590.970 7  20871366.188 7
  19643264.570 7  19643268.289 7 104857080.007 7  81555587.656 7  19643267.891 7
  22694992.164 5                 121402892.901 5                
 23  9 22 16 11 30.0000000  0 15G10G15G16G18G23G26G27G29G32R06R07R08
                                R21R22R23
  21310726.297 7  21310733.191 8 111988635.138 7  87263904.157 8  21310734.00448
  22341133.766 6  22341140.406 7 117403433.457 6  91483207.130 7  22341140.50847
  23949319.922 4                 125854484.083 4  98068459.97645  23949328.13745
  21135970.727 6  21135975.922 8 111070267.349 6  86548277.443 8  21135976.66047
  20571664.844 7  20571669.824 8 108104826.273 7  84237574.082 8  20571670.04747
  24872921.086 3  24872934.281 8 130708038.652 3 101850461.467 8  24872934.39846
  21969306.750 6  21969314.820 8 115449486.243 6  89960661.933 8  21969314.82048
  24361213.914 5  24361223.727 7 128018999.005 5  99755052.323 7  24361223.76247
  24264664.023 6  24264674.594 8 127511688.108 6  99359795.516 8  24264674.62547
  21397530.734 3                 114181301.962 3                
  19286935.758 7  19286941.762 7 103244486.312 7  80301279.170 7  19286941.027 7
  21327798.445 6  21327804.699 7 114209420.452 6  88829589.537 7  21327804.746 7
  20872301.375 7  20872306.488 7 111691931.965 7  86871507.505 7  20872307.250 6
  19635516.922 7  19635519.227 7 104815718.865 7  81523417.879 7  19635519.688 7
  22680240.656 5                 121323988.201 5                
 23  9 22 16 11 45.0000000  0 15G10G15G16G18G23G26G27G29G32R06R07R08
                                R21R22R23
  21302338.297 7  21302345.109 8 111944557.435 7  87229557.903 8  21302345.98448
  22343303.828 6  22343309.859 7 117414835.606 6  91492091.877 7  22343310.49247
  23950276.141 5                 125859506.399 5  98072373.38245  23950283.75045
  21133728.305 6  21133733.156 8 111058482.769 6  86539094.620 8  21133734.24246
  20569024.945 7  20569029.699 8 108090953.879 7  84226764.416 8  20569030.36747
  24875304.789 4  24875317.770 8 130720562.023 4 101860219.827 8  24875318.18847
  21958586.648 6  21958594.941 8 115393152.255 6  89916765.328 8  21958594.89848
  24367052.367 5  24367061.621 7 128049679.714 5  99778959.294 7  24367062.78147
  24249563.219 5  24249573.867 8 127432332.122 5  99297959.742 8  24249573.92647
  21402162.969 3                 114206017.222 3                
  19281578.078 7  19281583.441 7 103215809.912 7  80278975.297 7  19281582.941 7
  21313113.047 6  21313118.684 7 114130776.020 6  88768421.675 7  21313118.613 7
  20873263.281 7  20873268.340 7 111697082.189 7  86875513.217 7  20873268.629 7
  19627787.836 7  19627792.270 7 104774465.530 7  81491331.942 7  19627791.684 7
  22665491.469 5                 121245086.867 5                
 23  9 22 16 12  0.0000000  0 15G10G15G16G18G23G26G27G29G32R06R07R08
                                R21R22R23
  21293966.172 7  21293972.969 8 111900561.115 7  87195275.062 8  21293974.06348
  22345496.258 6  22345503.180 7 117426359.983 6  91501071.863 7  22345504.09847
  23951247.969 5                 125864615.095 5  98076354.18645  23951255.85945
  21131498.844 6  21131504.199 8 111046770.177 6  86529967.899 8  21131505.30946
  20566400.977 7  20566405.484 8 108077163.321 7  84216018.513 8  20566406.18047
  24877689.094 3  24877702.988 7 130733093.232 3 101869984.297 7  24877702.51646
  21947889.531 6  21947897.301 8 115336937.615 6  89872961.707 8  21947897.62948
  24372897.148 5  24372907.801 7 128080395.163 5  99802893.237 7  24372908.39147
  24234466.453 5  24234477.098 8 127352997.628 5  99236140.707 8  24234477.66847
  21406812.281 2                 114230827.842 2                
  19276257.430 7  19276262.758 7 103187324.205 7  80256819.740 7  19276261.906 7
  21298447.875 6  21298453.676 7 114052245.342 6  88707342.279 7  21298453.250 7
  20874248.289 7  20874252.785 7 111702349.356 7  86879609.862 7  20874253.430 6
  19620081.180 8  19620084.598 7 104733322.656 8  81459331.931 7  19620084.426 7
  22650743.305 5                 121166191.518 5                
 23  9 22 16 12 15.0000000  0 15G10G15G16G18G23G26G27G29G32R06R07R08
                                R21R22R23
  21285609.813 7  21285616.629 8 111856647.162 7  87161056.399 8  21285617.42648
  22347713.383 6  22347719.035 7 117438007.044 6  91510147.447 7  22347720.14547
  23952236.852 5                 125869810.492 5  98080402.47045  23952244.47745
  21129284.258 6  21129289.199 8 111035130.354 6  86520897.892 8  21129290.39846
  20563792.406 7  20563797.098 8 108063455.107 7  84205336.766 8  20563797.72747
  24880075.977 3  24880088.906 8 130745632.619 3 101879755.170 8  24880089.04747
  21937215.164 6  21937223.262 8 115280843.354 6  89829251.888 8  21937223.11348
  24378749.742 5  24378759.734 7 128111145.795 5  99826854.651 7  24378759.47347
  24219373.727 5  24219384.738 8 127273685.688 5  99174339.243 8  24219384.57047
  21411480.500 3                 114255733.725 3                
  19270971.328 7  19270977.223 7 103159029.692 7  80234812.915 7  19270976.254 7
  21283803.719 6  21283810.059 7 113973829.852 6  88646352.493 7  21283809.047 7
  20875254.414 7  20875260.504 7 111707733.946 7  86883797.830 7  20875259.973 7
  19612393.953 7  19612397.336 7 104692291.211 7  81427418.581 7  19612397.207 7
  22635994.141 5                 121087303.369 5                
 23  9 22 16 12 30.0000000  0 15G10G15G16G18G23G26G27G29G32R06R07R08
                                R21R22R23
  21277268.836 7  21277275.172 8 111812813.838 7  87126900.560 8  21277276.20348
  22349952.625 6  22349957.813 7 117449774.815 6  91519317.080 7  22349959.46147
  23953241.406 5                 125875090.589 5  98084516.85845  23953249.76245
  21127082.930 6  21127088.105 8 111023561.646 6  86511883.287 8  21127088.62546
  20561198.930 7  20561203.871 8 108049827.412 7  84194717.769 8  20561204.86747
  24882463.320 4  24882475.738 8 130758178.078 4 101889530.741 8  24882476.55546
  21926562.984 6  21926570.898 8 115224868.015 6  89785634.741 8  21926571.34448
  24384607.531 5  24384617.039 7 128141929.541 5  99850841.880 7  24384617.96547
  24204285.336 5  24204296.074 8 127194394.937 5  99112554.287 8  24204295.91847
  21416165.461 3                 114280733.143 3                
  19265721.148 7  19265727.246 7 103130924.815 7  80212953.542 7  19265726.277 7
  21269181.844 6  21269187.438 7 113895528.019 6  88585451.093 7  21269187.367 7
  20876283.219 7  20876288.898 7 111713234.438 7  86888075.957 7  20876288.723 7
  19604728.188 8  19604731.820 7 104651369.967 8  81395590.950 7  19604731.320 7
  22621249.602 5                 121008420.819 5                
 23  9 22 16 12 45.0000000  0 15G10G15G16G18G23G26G27G29G32R06R07R08
                                R21R22R23
  21268942.438 7  21268949.754 8 111769060.684 7  87092807.193 8  21268950.55548
  22352214.367 6  22352220.867 7 117461662.517 6  91528580.173 7  22352221.69147
  23954262.594 4                 125880454.691 4  98088696.62645  23954270.39845
  21124894.813 6  21124900.250 8 111012063.832 6  86502923.937 8  21124900.32046
  20558620.563 7  20558625.793 8 108036279.714 7  84184161.109 8  20558626.14147
  24884853.430 4  24884864.008 8 130770729.074 4 101899310.666 8  24884864.83646
  21915934.367 6  21915941.621 8 115169011.584 6  89742110.255 8  21915941.80148
  24390472.250 5  24390482.191 7 128172745.714 5  99874854.355 7  24390482.37947
  24189200.125 5  24189211.598 8 127115125.376 5  99050785.839 8  24189211.96547
  21420866.789 3                 114305824.976 3                
  19260506.680 7  19260510.363 7 103103009.077 7  80191241.310 7  19260510.566 7
  21254580.742 6  21254586.398 7 113817340.313 6  88524638.450 7  21254586.090 7
  20877331.781 7  20877337.285 7 111718850.517 7  86892443.976 7  20877337.578 7
  19597083.695 8  19597086.488 7 104610558.863 8  81363848.971 7  19597086.254 7
  22606503.617 5                 120929543.813 5                
 23  9 22 16 13  0.0000000  0 15G10G15G16G18G23G26G27G29G32R06R07R08
                                R21R22R23
  21260631.414 7  21260638.375 8 111725386.521 7  87058775.386 8  21260639.47348
  22354499.180 6  22354505.453 7 117473668.744 6  91537935.633 7  22354506.74647
  23955299.328 5                 125885901.382 5  98092940.72045  23955307.02345
  21122720.039 6  21122725.484 8 111000635.814 6  86494018.974 8  21122726.00446
  20556057.977 7  20556063.137 8 108022810.753 7  84173665.791 8  20556063.11347
  24887241.219 4  24887254.293 7 130783284.008 4 101909093.616 7  24887254.23447
  21905327.375 6  21905335.063 8 115113273.227 6  89698677.766 8  21905335.35948
  24396342.008 5  24396352.598 7 128203593.055 5  99898891.120 7  24396353.15647
  24174119.781 5  24174131.328 8 127035876.181 5  98989033.276 8  24174131.25847
  21425587.445 3                 114331007.626 3                
  19255326.203 8  19255331.820 7 103075281.167 8  80169675.148 7  19255331.438 7
  21240001.313 6  21240007.125 7 113739265.442 6  88463913.570 7  21240006.348 7
  20878403.766 7  20878408.230 7 111724580.932 7  86896900.924 7  20878409.109 7
  19589458.492 7  19589460.859 7 104569856.874 7  81332191.862 7  19589461.508 7
  22591761.484 5                 120850671.763 5                
 23  9 22 16 13 15.0000000  0 15G10G15G16G18G23G26G27G29G32R06R07R08
                                R21R22R23
  21252335.945 7  21252343.055 8 111681793.040 7  87024806.444 8  21252344.27748
  22356806.836 6  22356813.574 7 117485795.061 6  91547384.654 7  22356814.18047
  23956351.219 5                 125891432.109 5  98097250.31145  23956358.94145
  21120558.773 6  21120564.371 8 110989279.502 6  86485169.885 8  21120565.00846
  20553510.023 7  20553515.297 8 108009422.139 7  84163233.080 8  20553515.52747
  24889632.141 5  24889643.398 8 130795844.432 5 101918880.895 8  24889644.22347
  21894743.883 6  21894751.863 8 115057655.015 6  89655338.896 8  21894751.93848
  24402218.656 5  24402228.496 7 128234473.084 5  99922953.340 7  24402228.53147
  24159043.906 5  24159054.191 8 126956649.479 5  98927298.222 8  24159054.82447
  21430323.898 3                 114356282.421 3                
  19250181.609 7  19250187.273 7 103047742.911 7  80148256.510 7  19250187.359 7
  21225442.398 6  21225447.582 7 113661305.898 6  88403278.395 7  21225447.977 7
  20879495.164 7  20879501.063 7 111730427.517 7  86901448.240 7  20879501.352 7
  19581854.195 8  19581857.438 7 104529266.354 8  81300621.449 7  19581857.684 7
  22577015.008 5                 120771806.445 5                
 23  9 22 16 13 30.0000000  0 15G10G15G16G18G23G26G27G29G32R06R07R08
                                R21R22R23
  21244055.656 7  21244063.074 8 111638279.578 7  86990899.857 8  21244063.82049
  22359136.695 6  22359143.848 7 117498040.265 6  91556926.297 7  22359144.78547
  23957419.172 5                 125897045.554 5  98101624.39045  23957426.86745
  21118411.445 6  21118416.977 8 110977994.126 6  86476376.057 8  21118417.61346
  20550977.383 7  20550981.762 8 107996112.890 7  84152862.224 8  20550982.72347
  24892022.672 4  24892035.504 7 130808409.153 4 101928671.506 7  24892035.45346
  21884181.977 6  21884190.434 8 115002156.362 6  89612093.198 8  21884190.59448
  24408099.820 5  24408108.738 7 128265384.605 5  99947040.169 7  24408110.47747
  24143972.008 5  24143981.840 8 126877444.823 5  98865580.341 8  24143982.37547
  21435076.992 3                 114381648.063 3                
  19245073.016 7  19245078.574 7 103020393.135 7  80126984.442 7  19245077.969 7
  21210904.883 6  21210911.316 7 113583460.856 6  88342732.263 7  21210911.246 7
  20880609.039 7  20880615.969 7 111736389.496 7  86906085.299 7  20880615.555 7
  19574271.211 7  19574274.844 7 104488786.736 7  81269137.291 7  19574274.500 7
  22562275.914 5                 120692947.499 5                
 23  9 22 16 13 45.0000000  0 15G10G15G16G18G23G26G27G29G32R06R07R08
                                R21R22R23
  21235790.133 7  21235796.895 8 111594842.844 7  86957053.055 8  21235798.20748
  22361489.703 6  22361495.648 7 117510400.955 6  91566557.965 7  22361496.94547
  23958502.273 4                 125902738.217 4  98106060.22445  23958510.56645
  21116277.125 6  21116282.535 8 110966776.700 6  86467635.187 8  21116283.21946
  20548459.633 7  20548464.230 8 107982879.739 7  84142550.659 8  20548464.75047
  24894414.070 4  24894426.691 7 130820974.784 4 101938462.806 7  24894426.26246
  21873643.828 6  21873651.203 8 114946774.539 6  89568938.534 8  21873651.84048
  24413987.414 4  24413997.527 7 128296324.426 4  99971148.948 7  24413998.84846
  24128903.391 5  24128913.148 8 126798259.397 5  98803877.450 8  24128914.18047
  21439847.180 2                 114407100.851 2                
  19239998.328 7  19240003.281 7 102993228.623 7  80105856.476 7  19240002.895 7
  21196388.289 6  21196394.422 7 113505727.750 6  88282273.189 7  21196394.586 7
  20881745.211 7  20881750.305 7 111742463.584 7  86910809.560 7  20881750.828 7
  19566708.125 7  19566710.941 7 104448415.121 7  81237737.138 7  19566711.316 7
  22547533.977 5                 120614092.044 5                
 23  9 22 16 14  0.0000000  0 15G10G15G16G18G23G26G27G29G32R06R07R08
                                R21R22R23
  21227539.008 7  21227546.359 8 111551484.973 7  86923267.712 8  21227547.47348
  22363863.602 6  22363870.215 7 117522878.879 6  91576280.983 7  22363870.80147
  23959602.188 4                 125908512.225 4  98110559.34245  23959609.58245
  21114156.234 6  21114160.863 8 110955629.331 6  86458948.892 8  21114161.95346
  20545955.984 7  20545961.363 8 107969724.657 7  84132299.929 8  20545961.59447
  24896804.906 3  24896817.465 7 130833543.028 3 101948256.154 7  24896818.64146
  21863127.188 6  21863135.637 8 114891511.886 6  89525876.729 8  21863135.94548
  24419881.461 5  24419891.238 7 128327294.174 5  99995281.084 7  24419892.56347
  24113838.414 5  24113849.168 8 126719095.680 5  98742191.478 8  24113849.44147
  21444632.727 2                 114432642.731 2                
  19234958.703 8  19234964.234 7 102966251.727 8  80084874.458 7  19234963.496 7
  21181895.555 6  21181899.441 7 113428109.078 6  88221903.122 7  21181899.840 7
  20882900.508 7  20882906.215 7 111748651.845 7  86915622.608 7  20882907.559 7
  19559165.773 7  19559169.566 7 104408154.009 7  81206422.952 7  19559168.582 7
  22532793.922 5                 120535242.466 5                
 23  9 22 16 14 15.0000000  0 15G10G15G16G18G23G26G27G29G32R06R07R08
                                R21R22R23
  21219303.969 7  21219311.301 8 111508208.276 7  86889545.615 8  21219312.25049
  22366260.516 6  22366267.789 7 117535476.238 6  91586097.043 7  22366268.10547
  23960715.719 4                 125914369.645 4  98115123.50845  23960724.16045
  21112047.688 6  21112053.949 8 110944554.739 6  86450319.333 8  21112054.21146
  20543468.156 7  20543472.508 8 107956650.041 7  84122111.896 8  20543472.99647
  24899198.422 3  24899209.520 7 130846116.124 3 101958053.293 7  24899210.37146
  21852634.242 6  21852642.066 8 114836371.257 6  89482909.996 8  21852642.27748
  24425780.914 5  24425789.508 7 128358296.154 5 100019438.389 7  24425791.00847
  24098778.922 5  24098789.355 8 126639956.519 5  98680524.633 8  24098789.53947
  21449437.047 3                 114458275.616 3                
  19229954.797 8  19229959.949 7 102939464.650 8  80064040.068 7  19229959.730 7
  21167421.563 6  21167428.383 7 113350607.896 6  88161624.450 7  21167427.723 7
  20884079.117 7  20884085.168 7 111754957.027 7  86920526.599 7  20884085.809 7
  19551644.648 7  19551649.027 7 104368006.365 7  81175196.992 7  19551647.945 7
  22518054.000 5                 120456401.791 5                
 23  9 22 16 14 30.0000000  0 14G10G15G16G18G23G27G29G32R06R07R08R21
                                R22R23
  21211083.750 7  21211091.000 8 111465010.348 7  86855884.898 8  21211091.62148
  22368680.477 6  22368686.574 7 117548190.151 6  91596003.955 7  22368687.39847
  23961846.180 4                 125920307.432 4  98119750.32545  23961854.38745
  21109954.125 6  21109958.879 8 110933550.272 6  86441744.396 8  21109959.65246
  20540994.836 7  20540999.863 8 107943653.061 7  84111984.368 8  20541000.28947
  21842164.773 6  21842172.055 8 114781350.279 6  89440036.509 8  21842172.05148
  24431686.508 5  24431696.250 7 128389327.450 5 100043618.479 7  24431697.10547
  24083723.641 5  24083734.828 8 126560839.628 5  98618875.134 8  24083734.33247
  21454255.859 3                 114483996.395 3                
  19224985.398 7  19224990.996 7 102912864.521 7  80043351.075 7  19224990.848 7
  21152970.359 6  21152976.242 7 113273221.832 6  88101435.306 7  21152975.582 7
  20885279.188 7  20885284.379 7 111761376.234 7  86925519.273 7  20885284.785 7
  19544144.391 7  19544147.719 7 104327969.702 7  81144057.359 7  19544147.535 7
  22503318.031 5                 120377567.561 5                
 23  9 22 16 14 45.0000000  0 14G10G15G16G18G23G27G29G32R06R07R08R21
                                R22R23
  21202878.555 7  21202886.133 8 111421892.028 7  86822286.215 8  21202886.68048
  22371121.906 6  22371127.535 7 117561021.256 6  91606002.177 7  22371128.81647
  23962992.141 4                 125926326.340 4  98124440.34345  23962999.74245
  21107873.773 6  21107878.918 8 110922617.153 6  86433225.061 8  21107879.68046
  20538537.047 7  20538541.191 8 107930734.660 7  84101918.062 8  20538541.83647
  21831717.352 6  21831725.551 8 114726450.365 6  89397257.346 8  21831725.45748
  24437597.164 5  24437607.117 7 128420388.952 5 100067822.145 7  24437607.44547
  24068672.609 5  24068682.902 8 126481746.380 5  98557244.067 8  24068683.30947
  21459094.094 3                 114509805.644 3                
  19220051.305 7  19220056.461 7 102886452.607 7  80022808.477 7  19220056.453 7
  21138540.617 6  21138546.863 7 113195952.341 6  88041336.834 7  21138546.320 7
  20886500.211 7  20886504.340 7 111767910.590 7  86930601.526 7  20886505.102 7
  19536665.891 7  19536668.770 7 104288045.541 7  81113005.224 7  19536668.609 7
  22488582.625 5                 120298741.141 5                
 23  9 22 16 15  0.0000000  0 14G10G15G16G18G23G27G29G32R06R07R08R21
                                R22R23
  21194688.742 7  21194695.805 8 111378852.275 7  86788748.746 8  21194696.94549
  22373585.734 6  22373591.988 7 117573967.987 6  91616090.489 7  22373591.94947
  23964151.992 4                 125932424.635 4  98129192.23045  23964159.48445
  21105806.414 6  21105811.957 8 110911754.068 6  86424760.310 8  21105812.43446
  20536093.133 7  20536097.754 8 107917893.322 7  84091911.822 8  20536098.08247
  21821292.914 6  21821300.840 8 114671670.404 6  89354571.655 8  21821301.23848
  24443513.320 5  24443524.297 7 128451479.097 5 100092048.098 7  24443524.79347
  24053625.305 5  24053636.629 8 126402675.837 5  98495630.692 8  24053636.82047
  21463946.109 2                 114535701.403 2                
  19215152.820 7  19215157.734 7 102860227.228 7  80002410.965 7  19215157.398 7
  21124132.875 6  21124138.633 7 113118798.505 6  87981328.314 7  21124138.090 7
  20887743.227 7  20887748.305 7 111774558.819 7  86935772.345 7  20887748.246 6
  19529207.195 7  19529210.449 7 104248232.772 7  81082039.729 7  19529210.328 7
  22473848.195 5                 120219921.436 5                
 23  9 22 16 15 15.0000000  0 14G10G15G16G18G23G27G29G32R06R07R08R21
                                R22R23
  21186512.938 7  21186520.422 8 111335890.583 7  86755272.111 8  21186521.25049
  22376071.750 6  22376077.898 7 117587029.864 6  91626268.518 7  22376078.08647
  23965327.352 5                 125938601.715 5  98134005.46145  23965336.00445
  21103752.711 6  21103758.195 8 110900960.878 6  86416350.000 8  21103759.13746
  20533664.125 7  20533668.500 8 107905128.650 7  84081965.307 8  20533668.84047
  21810891.477 6  21810899.352 8 114617010.475 6  89311979.502 8  21810899.35248
  24449435.953 6  24449445.094 7 128482597.236 6 100116295.887 7  24449446.04347
  24038583.797 5  24038593.492 8 126323628.009 5  98434034.994 8  24038594.27047
  21468814.797 2                 114561683.201 2                
  19210288.289 7  19210293.891 7 102834187.866 7  79982158.114 7  19210293.371 7
  21109746.813 6  21109752.371 7 113041759.981 6  87921409.484 7  21109751.828 7
  20889005.734 7  20889012.188 7 111781320.693 7  86941031.557 7  20889012.363 7
  19521769.203 7  19521772.512 7 104208531.386 7  81051160.875 7  19521773.070 7
  22459114.672 5                 120141108.803 5                
 23  9 22 16 15 30.0000000  0 14G10G15G16G18G23G27G29G32R06R07R08R21
                                R22R23
  21178352.508 7  21178360.113 8 111293006.808 7  86721856.183 8  21178360.89548
  22378578.617 6  22378585.621 7 117600206.333 6  91636535.868 7  22378585.53947
  23966518.180 4                 125944857.202 4  98138879.83345  23966526.25845
  21101712.031 6  21101717.656 8 110890237.553 6  86407994.146 8  21101717.83646
  20531249.227 7  20531254.051 8 107892440.361 7  84072078.313 8  20531254.67247
  21800513.008 6  21800520.840 8 114562470.729 6  89269481.001 8  21800521.25848
  24455362.031 5  24455372.832 7 128513742.952 5 100140565.174 7  24455373.59447
  24023545.648 5  24023555.813 7 126244603.165 5  98372457.221 7  24023556.00847
  21473698.359 2                 114587750.242 2                
  19205459.063 7  19205465.395 7 102808334.705 7  79962050.096 7  19205464.070 7
  21095381.789 6  21095387.539 7 112964837.473 6  87861580.882 7  21095387.230 7
  20890290.586 7  20890296.465 7 111788196.002 7  86946378.969 7  20890297.227 7
  19514353.195 7  19514355.996 7 104168941.688 7  81020368.884 7  19514356.297 7
  22444382.141 5                 120062303.166 5                
 23  9 22 16 15 45.0000000  0 14G10G15G16G18G23G27G29G32R06R07R08R21
                                R22R23
  21170207.156 7  21170213.988 8 111250201.824 7  86688501.655 8  21170214.84049
  22381107.844 6  22381114.000 7 117613497.964 6  91646892.937 7  22381115.02047
  23967724.188 4                 125951191.505 4  98143815.57345  23967731.78945
  21099685.125 6  21099690.855 8 110879585.036 6  86399693.464 8  21099690.95346
  20528849.359 7  20528854.195 8 107879829.246 7  84062251.462 8  20528854.83247
  21790157.641 6  21790166.066 8 114508052.369 6  89227077.093 8  21790165.78148
  24461294.344 5  24461305.164 7 128544917.006 5 100164856.499 7  24461305.60947
  24008512.211 5  24008522.105 7 126165602.552 5  98310898.325 7  24008522.73847
  21478602.008 3                 114613903.138 3                
  19200663.711 7  19200670.215 7 102782668.245 7  79942087.289 7  19200668.832 7
  21081038.336 6  21081044.676 7 112888032.213 6  87801843.474 7  21081044.484 7
  20891597.297 7  20891603.379 7 111795185.617 7  86951815.280 7  20891604.254 7
  19506957.641 7  19506961.875 7 104129465.041 7  80989664.811 7  19506961.836 7
  22429652.570 5                 119983505.845 5                
 23  9 22 16 16  0.0000000  0 14G10G15G16G18G23G27G29G32R06R07R08R21
                                R22R23
  21162076.438 7  21162083.785 8 111207475.786 7  86655208.648 8  21162084.88749
  22383659.148 6  22383665.359 7 117626904.646 6  91657339.668 7  22383665.95747
  23968943.586 5                 125957604.415 5  98148812.59245  23968951.48045
  21097671.516 6  21097676.563 8 110869003.547 6  86391448.133 8  21097677.35246
  20526464.297 6  20526468.531 8 107867295.237 6  84052484.677 8  20526469.41447
  21779825.359 6  21779833.203 8 114453755.781 6  89184768.061 8  21779833.18048
  24467232.539 5  24467242.711 7 128576119.211 5 100189169.761 7  24467243.08647
  23993483.523 5  23993492.652 8 126086626.607 5  98249358.640 8  23993493.78147
  21483520.039 2                 114640141.593 2                
  19195903.922 8  19195909.488 7 102757188.783 8  79922269.925 7  19195909.090 7
  21066717.578 6  21066723.598 7 112811344.703 6  87742197.649 7  21066723.410 7
  20892924.523 7  20892930.406 7 111802289.629 7  86957340.590 7  20892930.465 6
  19499584.375 7  19499588.020 7 104090101.604 7  80959048.811 7  19499587.762 7
  22414923.758 5                 119904717.440 5                
 23  9 22 16 16 15.0000000  0 14G10G15G16G18G23G27G29G32R06R07R08R21
                                R22R23
  21153960.898 7  21153968.422 8 111164829.022 7  86621977.404 8  21153969.21949
  22386232.328 6  22386238.863 7 117640426.582 6  91667876.178 7  22386239.52347
  23970179.578 4                 125964096.187 4  98153871.08245  23970187.61345
  21095671.164 6  21095676.758 8 110858493.665 6  86383258.591 8  21095677.57846
  20524094.109 7  20524099.297 8 107854838.647 7  84042778.233 8  20524099.45347
  21769516.180 6  21769524.215 8 114399581.728 6  89142554.517 8  21769524.60548
  24473175.570 6  24473185.613 7 128607349.728 6 100213505.114 7  24473186.23447
  23978459.820 6  23978470.547 8 126007676.151 6  98187838.841 8  23978470.69947
  21488450.828 3                 114666465.359 3                
  19191179.438 7  19191184.082 7 102731896.276 7  79902597.967 7  19191184.176 7
  21052419.273 6  21052426.039 7 112734775.673 6  87682643.975 7  21052424.676 7
  20894273.539 7  20894279.457 7 111809508.432 7  86962955.180 7  20894279.629 6
  19492230.914 7  19492234.723 7 104050852.282 7  80928521.549 7  19492234.613 7
  22400195.906 5                 119825938.450 5                
 23  9 22 16 16 30.0000000  0 14G10G15G16G18G23G27G29G32R06R07R08R21
                                R22R23
  21145860.680 7  21145867.449 8 111122260.423 7  86588807.079 8  21145868.18448
  22388827.938 6  22388834.902 7 117654062.401 6  91678501.454 7  22388835.21147
  23971429.617 5                 125970665.249 5  98158989.80245  23971436.96945
  21093684.984 6  21093690.332 8 110848054.385 6  86375124.071 8  21093691.19546
  20521738.164 7  20521743.066 8 107842458.269 7  84033131.172 8  20521743.31347
  21759230.578 6  21759238.949 8 114345529.443 6  89100435.861 8  21759238.94148
  24479123.570 5  24479133.336 8 128638607.356 5 100237861.592 8  24479134.16847
  23963440.656 6  23963451.512 8 125928750.436 6  98126338.306 8  23963451.38747
  21493400.555 2                 114692873.070 2                
  19186489.461 7  19186495.488 7 102706789.708 7  79883070.640 7  19186494.309 7
  21038142.461 6  21038148.371 7 112658324.548 6  87623182.016 7  21038147.711 7
  20895644.023 7  20895649.094 7 111816840.997 7  86968658.260 7  20895649.969 6
  19484899.625 8  19484903.031 7 104011716.326 8  80898082.465 7  19484903.430 7
  22385470.828 5                 119747168.112 5                
 23  9 22 16 16 45.0000000  0 14G10G15G16G18G23G27G29G32R06R07R08R21
                                R22R23
  21137775.102 7  21137782.719 8 111079770.264 7  86555697.876 8  21137783.23049
  22391443.398 6  22391450.574 7 117667811.805 6  91689215.238 7  22391451.16447
  23972694.219 5                 125977311.542 5  98164168.67045  23972701.91445
  21091711.844 6  21091717.230 8 110837685.849 6  86367044.665 8  21091718.12546
  20519396.305 7  20519401.305 8 107830154.014 7  84023543.424 8  20519401.77747
  21748968.078 6  21748975.758 8 114291599.254 6  89058412.337 8  21748976.29748
  24485077.055 6  24485087.555 8 128669891.782 6 100262238.929 8  24485088.17247
  23948426.625 6  23948436.211 8 125849849.921 6  98064857.401 8  23948436.64547
  21498364.352 2                 114719364.174 2                
  19181834.563 8  19181839.426 7 102681869.001 8  79863687.847 7  19181839.082 7
  21023887.906 6  21023894.219 7 112581991.597 6  87563811.953 7  21023894.031 7
  20897035.430 7  20897040.746 7 111824287.348 7  86974449.837 7  20897041.621 6
  19477589.367 7  19477593.082 7 103972694.084 7  80867731.833 7  19477592.758 7
  22370747.055 5                 119668407.095 5                
 23  9 22 16 17  0.0000000  0 14G10G15G16G18G23G27G29G32R06R07R08R21
                                R22R23
  21129703.930 7  21129711.574 8 111037357.300 7  86522648.824 8  21129712.17249
  22394081.102 6  22394088.531 7 117681673.498 6  91700016.507 7  22394089.16047
  23973973.570 5                 125984033.731 5  98169406.76745  23973980.74245
  21089751.859 6  21089758.000 8 110827387.190 6  86359019.714 8  21089758.51646
  20517069.664 7  20517073.980 8 107817924.763 7  84014014.119 8  20517074.44147
  21738728.531 6  21738736.188 8 114237790.525 6  89016483.472 8  21738736.80548
  24491034.711 5  24491045.680 8 128701201.706 5 100286636.127 8  24491046.32047
  23933416.539 6  23933426.742 8 125770973.926 6  98003395.605 8  23933427.00847
  21503343.398 2                 114745937.335 2                
  19177212.930 8  19177218.344 7 102657133.276 8  79844448.946 7  19177218.180 7
  21009655.414 6  21009661.438 7 112505776.217 6  87504533.354 7  21009660.867 7
  20898447.938 7  20898453.348 7 111831846.538 7  86980329.176 7  20898454.109 6
  19470300.898 8  19470302.934 7 103933784.962 8  80837469.185 7  19470304.488 7
  22356025.680 5                 119589654.737 5                
 23  9 22 16 17 15.0000000  0 14G10G15G16G18G23G27G29G32R06R07R08R21
                                R22R23
  21121647.906 7  21121655.734 8 110995021.279 7  86489659.726 8  21121656.02749
  22396740.906 6  22396747.203 7 117695646.829 6  91710904.759 7  22396748.32047
  23975267.320 5                 125990831.100 5  98174703.29245  23975274.84045
  21087806.078 6  21087811.348 8 110817158.173 6  86351049.033 8  21087811.80946
  20514756.766 7  20514761.910 8 107805770.070 7  84004542.913 8  20514761.99647
  21728511.930 6  21728519.613 8 114184103.196 6  88974649.193 8  21728520.16448
  24496998.039 5  24497007.316 8 128732536.563 5 100311052.768 8  24497008.50047
  23918412.586 6  23918421.582 7 125692122.512 6  97941952.966 7  23918422.32047
  21508339.805 2                 114772591.945 2                
  19172627.156 8  19172632.664 7 102632581.828 8  79825353.371 7  19172631.836 7
  20995444.289 6  20995450.648 7 112429678.489 6  87445346.256 7  20995449.977 7
  20899881.938 7  20899885.539 7 111839518.171 7  86986295.954 7  20899887.707 7
  19463033.133 7  19463036.180 7 103894989.021 7  80807294.559 7  19463036.500 7
  22341305.953 5                 119510910.582 5                
 23  9 22 16 17 30.0000000  0 14G10G15G16G18G23G27G29G32R06R07R08R21
                                R22R23
  21113605.984 7  21113613.340 8 110952761.655 7  86456730.158 8  21113614.19949
  22399421.422 6  22399427.570 7 117709730.888 6  91721879.323 7  22399428.39147
  23976574.938 5                 125997702.705 5  98180057.77746  23976582.69146
  21085872.602 6  21085877.977 8 110806998.342 6  86343132.258 8  21085878.52346
  20512457.758 6  20512461.867 8 107793689.243 6  83995129.271 8  20512462.19147
  21718318.820 6  21718326.906 8 114130537.014 6  88932909.327 8  21718327.01648
  24502965.461 5  24502975.387 7 128763895.702 5 100335488.341 7  24502976.18847
  23903411.578 6  23903421.738 8 125613295.489 6  97880529.309 8  23903422.22747
  21513350.648 2                 114799326.632 2                
  19168074.391 7  19168079.355 7 102608213.917 7  79806400.551 7  19168079.324 7
  20981256.656 6  20981261.844 7 112353698.108 6  87386250.435 7  20981261.691 7
  20901336.445 7  20901340.879 7 111847301.669 7  86992349.740 7  20901341.637 6
  19455785.531 7  19455789.547 7 103856306.004 7  80777207.776 7  19455789.582 7
  22326587.234 5                 119432174.741 5                
 23  9 22 16 17 45.0000000  0 14G10G15G16G18G23G27G29G32R06R07R08R21
                                R22R23
  21105578.594 7  21105585.852 8 110910578.305 7  86423860.017 8  21105586.93449
  22402121.453 6  22402127.336 7 117723925.635 6  91732940.125 7  22402129.70347
  23977896.766 5                 126004648.218 5  98185469.81345  23977904.66445
  21083952.461 6  21083957.629 8 110796907.996 6  86335269.626 8  21083958.85246
  20510172.914 6  20510177.734 8 107781682.347 6  83985773.236 8  20510177.64147
  21708148.922 6  21708156.293 8 114077092.491 6  88891264.248 8  21708156.81648
  24508937.977 5  24508948.461 8 128795279.060 5 100359942.757 8  24508949.00447
  23888416.586 6  23888426.508 7 125534493.405 6  97819125.105 7  23888426.36347
  21518375.211 2                 114826141.439 2                
  19163557.477 8  19163561.902 7 102584029.700 8  79787590.596 7  19163561.828 7
  20967088.531 6  20967094.613 7 112277835.820 6  87327246.465 7  20967094.707 7
  20902811.328 7  20902817.168 7 111855197.274 7  86998490.735 7  20902817.578 6
  19448560.828 7  19448564.598 7 103817736.270 7  80747209.078 7  19448564.426 7
  22311868.930 5                 119353447.894 5                
 23  9 22 16 18  0.0000000  0 14G10G15G16G18G23G27G29G32R06R07R08R21
                                R22R23
  21097566.336 7  21097573.625 8 110868473.758 7  86391051.282 8  21097574.62949
  22404845.867 6  22404851.344 8 117738232.863 6  91744088.559 8  22404852.50847
  23979232.578 5                 126011669.516 5  98190940.90845  23979240.37545
  21082045.398 6  21082051.445 8 110786889.167 6  86327462.737 8  21082052.30546
  20507902.617 6  20507906.484 8 107769751.172 6  83976476.195 8  20507907.12547
  21698001.930 6  21698009.887 8 114023771.863 6  88849715.728 8  21698010.35548
  24514914.609 5  24514926.105 8 128826688.277 5 100384417.318 8  24514926.18847
  23873425.516 6  23873435.727 7 125455718.563 6  97757742.126 7  23873435.99647
  21523415.883 2                 114853037.827 2                
  19159073.219 8  19159079.117 7 102560031.196 8  79768925.092 7  19159078.617 7
  20952943.930 6  20952950.367 7 112202093.829 6  87268336.052 7  20952950.027 7
  20904308.711 7  20904313.188 7 111863206.918 7  87004720.438 7  20904314.066 6
  19441357.227 7  19441360.117 7 103779282.239 7  80717300.394 7  19441360.445 7
  22297154.992 5                 119274732.228 5                
 23  9 22 16 18 15.0000000  0 14G10G15G16G18G23G27G29G32R06R07R08R21
                                R22R23
  21089568.945 7  21089576.676 8 110826447.175 7  86358303.308 8  21089577.55549
  22407588.086 6  22407594.586 7 117752651.820 6  91755324.084 7  22407596.06347
  23980583.039 5                 126018766.117 5  98196470.66245  23980590.64845
  21080152.547 6  21080158.105 8 110776941.729 6  86319711.462 8  21080158.62546
  20505646.516 6  20505650.180 8 107757895.353 6  83967237.880 8  20505651.32047
  21687878.781 6  21687886.930 8 113970575.170 6  88808263.768 8  21687887.17648
  24520896.766 5  24520907.148 8 128858122.803 5 100408911.619 8  24520907.43847
  23858440.648 6  23858450.164 7 125376971.043 6  97696380.425 7  23858450.05147
  21528470.969 2                 114880015.024 2                
  19154624.906 8  19154631.078 7 102536217.952 8  79750403.668 7  19154630.461 7
  20938822.422 6  20938828.930 7 112126472.642 6  87209519.599 7  20938828.578 7
  20905826.102 7  20905831.840 7 111871330.312 7  87011038.615 7  20905832.480 6
  19434174.805 7  19434178.746 7 103740944.027 7  80687481.766 7  19434178.527 7
  22282440.617 5                 119196027.768 5                
 23  9 22 16 18 30.0000000  0 14G10G15G16G18G23G27G29G32R06R07R08R21
                                R22R23
  21081586.438 7  21081593.359 8 110784497.689 7  86325615.399 8  21081594.76649
  22410353.555 6  22410360.223 7 117767180.968 6  91766645.428 7  22410361.03147
  23981947.664 5                 126025936.293 5  98202057.74845  23981955.41045
  21078273.078 6  21078278.594 8 110767064.461 6  86312014.866 8  21078279.01246
  20503403.992 6  20503408.930 8 107746113.457 6  83958057.165 8  20503408.96147
  21677779.438 6  21677787.559 8 113917501.441 6  88766907.629 8  21677787.78148
  24526882.000 4  24526893.758 7 128889581.135 4 100433424.455 7  24526893.87147
  23843460.156 6  23843469.844 8 125298249.965 6  97635039.361 8  23843470.19147
  21533539.922 2                 114907071.301 2                
  19150210.664 8  19150216.059 7 102512588.491 8  79732025.177 7  19150215.793 7
  20924723.125 6  20924728.766 7 112050970.627 6  87150795.846 7  20924728.738 7
  20907365.375 7  20907370.715 7 111879566.215 7  87017444.270 7  20907371.828 7
  19427014.414 7  19427018.961 7 103702720.675 7  80657752.491 7  19427018.402 7
  22267730.148 5                 119117333.663 5                
 23  9 22 16 18 45.0000000  0 14G10G15G16G18G23G27G29G32R06R07R08R21
                                R22R23
  21073618.039 7  21073625.598 8 110742626.697 7  86292988.661 8  21073626.39149
  22413139.578 6  22413146.031 7 117781821.926 6  91778053.929 7  22413146.94547
  23983326.641 5                 126033181.504 5  98207703.32045  23983334.29745
  21076407.523 6  21076413.199 8 110757259.315 6  86304374.484 8  21076413.58246
  20501176.953 7  20501181.285 8 107734407.163 7  83948935.362 8  20501181.68447
  21667703.219 6  21667711.559 8 113864552.771 6  88725648.932 8  21667711.82048
  24532874.602 4  24532884.680 8 128921064.952 4 100457957.151 8  24532885.28147
  23828485.859 6  23828495.191 8 125219557.475 6  97573720.538 8  23828495.28947
  21538627.742 2                 114934207.971 2                
  19145831.453 7  19145837.414 7 102489144.453 7  79713790.921 7  19145837.031 7
  20910646.641 6  20910652.020 7 111975590.668 6  87092167.006 7  20910652.246 7
  20908926.922 7  20908932.215 7 111887916.365 7  87023938.787 7  20908932.391 7
  19419875.289 7  19419879.176 7 103664614.257 7  80628114.166 7  19419879.188 7
  22253021.828 5                 119038651.858 5                
 23  9 22 16 19  0.0000000  0 14G10G15G16G18G23G27G29G32R06R07R08R21
                                R22R23
  21065665.047 7  21065672.535 8 110700832.014 7  86260421.379 8  21065673.39849
  22415946.430 6  22415952.715 7 117796571.840 6  91789547.312 7  22415953.69147
  23984718.852 5                 126040498.915 5  98213405.18045  23984726.19545
  21074554.656 6  21074560.727 8 110747523.907 6  86296788.426 8  21074561.16846
  20498963.164 6  20498967.820 8 107722773.922 6  83939870.489 8  20498968.33647
  21657650.922 6  21657659.082 8 113811727.023 6  88684486.026 8  21657659.50848
  24538869.594 4  24538881.063 8 128952571.465 4 100482507.543 8  24538881.59447
  23813516.359 6  23813525.930 8 125140891.486 6  97512422.384 8  23813525.92647
  21543725.633 2                 114961422.271 2                
  19141486.719 7  19141491.488 7 102465883.468 7  79695699.037 7  19141490.988 7
  20896591.992 6  20896598.922 7 111900330.209 6  87033631.135 7  20896598.152 7
  20910507.273 7  20910512.410 7 111896378.357 7  87030520.291 7  20910512.938 7
  19412758.984 7  19412763.016 7 103626622.728 7  80598565.202 7  19412762.461 7
  22238314.789 5                 118959980.470 5                
 23  9 22 16 19 15.0000000  0 14G10G15G16G18G23G27G29G32R06R07R08R21
                                R22R23
  21057726.648 7  21057733.520 8 110659113.907 7  86227913.775 8  21057734.58249
  22418774.391 6  22418780.609 7 117811430.882 6  91801125.749 7  22418781.04347
  23986125.430 5                 126047888.630 5  98219163.29745  23986132.70345
  21072715.445 6  21072721.457 8 110737858.757 6  86289257.120 8  21072721.64547
  20496763.289 7  20496768.117 8 107711213.950 7  83930862.694 8  20496768.19547
  21647622.602 6  21647630.191 8 113759024.867 6  88643419.432 8  21647630.19948
  24544869.680 4  24544881.352 8 128984100.818 4 100507075.674 8  24544881.55147
  23798551.734 6  23798561.418 8 125062252.760 6  97451145.463 8  23798560.97747
  21548841.891 1                 114988714.209 1                
  19137174.867 8  19137180.309 7 102442805.648 8  79677749.618 7  19137180.051 7
  20882560.516 6  20882566.523 7 111825190.233 6  86975188.963 7  20882565.676 7
  20912110.133 7  20912115.617 7 111904952.517 7  87037189.032 7  20912115.789 7
  19405663.125 7  19405666.059 7 103588746.671 7  80569106.037 7  19405666.797 7
  22223609.422 5                 118881320.345 5                
 23  9 22 16 19 30.0000000  0 14G10G15G16G18G23G27G29G32R06R07R08R21
                                R22R23
  21049802.555 7  21049810.328 8 110617474.271 7  86195467.312 8  21049811.09449
  22421623.266 6  22421629.824 7 117826400.412 6  91812790.270 7  22421630.00847
  23987545.195 5                 126055352.153 5  98224979.00545  23987553.10545
  21070890.023 6  21070895.207 8 110728265.715 6  86281782.000 8  21070895.87546
  20494577.516 7  20494582.355 8 107699728.894 7  83921913.283 8  20494582.64147
  21637616.922 6  21637625.594 8 113706448.363 6  88602450.740 8  21637625.59848
  24550873.953 4  24550885.395 8 129015654.490 4 100531662.784 8  24550885.77047
  23783593.102 6  23783602.512 8 124983643.411 6  97389891.448 8  23783602.20747
  21553969.734 2                 115016084.899 2                
  19132898.531 7  19132905.320 7 102419912.725 7  79659944.010 7  19132904.063 7
  20868551.039 6  20868556.633 7 111750172.903 6  86916842.173 7  20868556.723 7
  20913734.305 7  20913739.594 7 111913640.678 7  87043946.459 7  20913740.121 7
  19398589.859 7  19398592.648 7 103550988.368 7  80539738.475 7  19398593.598 7
  22208907.313 5                 118802673.417 5                
 23  9 22 16 19 45.0000000  0 14G10G15G16G18G23G27G29G32R06R07R08R21
                                R22R23
  21041894.211 7  21041901.801 8 110575913.289 7  86163082.137 8  21041902.53549
  22424491.742 6  22424498.871 7 117841480.295 6  91824540.769 7  22424499.69947
  23988979.711 5                 126062889.117 5  98230851.96545  23988987.36345
  21069078.242 6  21069084.422 8 110718745.068 6  86274363.303 8  21069084.94147
  20492406.461 6  20492411.102 8 107688318.805 6  83913022.285 8  20492411.51247
  21627636.320 6  21627643.887 8 113653997.979 6  88561580.319 8  21627644.41848
  24556885.125 4  24556894.574 8 129047232.398 4 100556268.823 8  24556894.91047
  23768639.609 6  23768649.480 8 124905063.984 6  97328660.752 8  23768649.94147
  21559113.008 2                 115043534.316 2                
  19128656.594 8  19128662.012 7 102397204.825 8  79642282.287 7  19128661.855 7
  20854565.492 6  20854570.855 7 111675278.730 6  86858591.183 7  20854570.805 7
  20915380.148 7  20915384.500 7 111922442.817 7  87050792.532 7  20915385.023 7
  19391538.250 7  19391542.309 7 103513348.279 7  80510462.831 7  19391542.141 7
  22194208.227 5                 118724040.351 5                
 23  9 22 16 20  0.0000000  0 14G10G15G16G18G23G27G29G32R06R07R08R21
                                R22R23
  21033999.836 7  21034007.668 8 110534430.019 7  86130757.513 8  21034008.52749
  22427382.195 6  22427389.523 7 117856669.512 6  91836376.478 7  22427389.90247
  23990427.813 5                 126070498.696 5  98236781.41345  23990435.90645
  21067280.391 6  21067286.449 8 110709296.105 6  86267000.448 8  21067286.94146
  20490249.281 7  20490254.313 8 107676982.753 7  83904188.982 8  20490254.71147
  21617679.148 6  21617686.930 8 113601673.245 6  88520807.811 8  21617687.41048
  24562897.023 2  24562908.578 8 129078833.518 2 100580892.945 8  24562908.85946
  23753691.789 6  23753701.559 8 124826514.043 6  97267453.036 8  23753701.90247
  21564271.570 2                 115071060.965 2                
  19124448.719 7  19124454.223 7 102374680.685 7  79624763.498 7  19124453.668 7
  20840602.313 6  20840608.238 7 111600507.203 6  86800435.591 7  20840608.102 7
  20917044.750 7  20917051.258 7 111931358.377 7  87057726.806 7  20917051.313 7
  19384509.750 7  19384512.051 7 103475825.951 7  80481278.791 7  19384513.254 7
  22179510.828 5                 118645420.679 5                
 23  9 22 16 20 15.0000000  0 14G10G15G16G18G23G27G29G32R06R07R08R21
                                R22R23
  21026121.250 7  21026128.504 8 110493025.320 7  86098494.123 8  21026129.45749
  22430294.328 6  22430300.902 7 117871968.568 6  91848297.784 7  22430301.36747
  23991889.805 5                 126078181.379 5  98242767.89845  23991897.86345
  21065495.773 6  21065501.598 8 110699919.845 6  86259694.263 8  21065502.53946
  20488106.391 6  20488111.027 8 107665721.520 6  83895413.975 8  20488111.66447
  21607746.000 6  21607753.891 8 113549475.377 6  88480134.152 8  21607754.41848
  24568915.445 2  24568927.094 8 129110458.753 2 100605535.722 8  24568927.04746
  23738749.961 6  23738760.793 8 124747994.884 6  97206269.308 8  23738760.61747
  21569446.078 2                 115098665.440 2                
  19120275.313 8  19120281.742 7 102352341.252 8  79607388.374 7  19120280.285 7
  20826661.977 6  20826667.742 7 111525859.713 6  86742376.469 7  20826667.621 7
  20918732.508 7  20918739.117 7 111940388.125 7  87064749.889 7  20918738.234 7
  19377502.625 7  19377505.668 7 103438422.476 7  80452187.190 7  19377506.172 7
  22164817.305 5                 118566815.460 5                
 23  9 22 16 20 30.0000000  0 14G10G15G16G18G23G27G29G32R06R07R08R21
                                R22R23
  21018256.852 7  21018263.668 8 110451698.422 7  86066291.354 8  21018264.78949
  22433226.148 6  22433232.973 7 117887376.532 6  91860303.952 7  22433233.55947
  23993365.242 5                 126085936.063 5  98248810.47945  23993373.69145
  21063725.867 6  21063731.059 8 110690615.646 6  86252444.225 8  21063731.76646
  20485977.117 6  20485982.539 8 107654534.211 6  83886696.574 8  20485982.88347
  21597837.836 6  21597845.500 8 113497403.880 6  88439558.964 8  21597845.94148
  24574937.578 2  24574949.023 8 129142106.609 2 100630196.232 8  24574949.60946
  23723814.328 6  23723824.664 8 124669506.074 6  97145109.238 8  23723824.18047
  21574634.047 2                 115126346.616 2                
  19116136.586 7  19116142.598 7 102330185.891 7  79590156.415 7  19116141.652 7
  20812745.922 6  20812750.613 7 111451335.746 6  86684413.423 7  20812750.813 7
  20920441.359 7  20920446.910 7 111949531.226 7  87071861.158 7  20920447.320 7
  19370518.133 7  19370521.223 7 103401137.676 7  80423187.889 7  19370521.305 7
  22150125.711 5                 118488224.462 5                
 23  9 22 16 20 45.0000000  0 14G10G15G16G18G23G27G29G32R06R07R08R21
                                R22R23
  21010407.523 7  21010414.758 8 110410449.174 7  86034149.098 8  21010415.66049
  22436178.727 6  22436185.535 7 117902892.705 6  91872394.424 7  22436186.18847
  23994854.477 5                 126093762.093 5  98254908.60445  23994862.39545
  21061968.609 6  21061974.418 8 110681383.285 6  86245250.163 8  21061974.53947
  20483862.875 6  20483867.660 8 107643420.439 6  83878036.470 8  20483868.05147
  21587952.656 6  21587960.539 8 113445458.752 6  88399082.249 8  21587960.87548
  24580965.508 2  24580975.969 8 129173776.892 2 100654874.228 8  24580975.96946
  23708884.031 6  23708894.504 8 124591047.693 6  97083972.873 8  23708894.55947
  21579834.102 2                 115154103.677 2                
  19112032.172 7  19112037.281 7 102308213.661 7  79573066.896 7  19112037.496 7
  20798851.789 6  20798857.121 7 111376935.802 6  86626546.840 7  20798857.469 7
  20922171.234 7  20922176.449 7 111958787.538 7  87079060.479 7  20922176.504 7
  19363555.422 7  19363559.355 7 103363971.511 7  80394280.887 7  19363559.547 7
  22135436.211 5                 118409647.875 5                
 23  9 22 16 21  0.0000000  0 14G10G15G16G18G23G27G29G32R06R07R08R21
                                R22R23
  21002572.945 7  21002580.043 8 110369277.807 7  86002067.512 8  21002581.03149
  22439152.156 6  22439158.410 7 117918517.158 6  91884569.278 7  22439159.64547
  23996357.992 5                 126101659.497 5  98261062.37445  23996366.24645
  21060225.508 6  21060231.469 8 110672223.218 6  86238112.435 8  21060231.90647
  20481762.078 7  20481766.430 8 107632380.347 7  83869433.778 8  20481767.12947
  21578091.609 6  21578099.914 8 113393640.620 6  88358704.502 8  21578100.09048
  24586992.820 1  24587006.980 8 129205469.86311 100679569.82518  24587006.93446
  23693960.102 6  23693969.906 8 124512620.460 6  97022860.789 8  23693970.05547
  21585051.391 2                 115181936.608 2                
  19107961.461 8  19107968.313 7 102286425.122 8  79556120.243 7  19107966.668 7
  20784981.367 6  20784986.930 7 111302660.216 6  86568776.979 7  20784986.727 7
  20923921.758 7  20923928.027 7 111968157.203 7  87086347.969 7  20923927.496 7
  19356614.055 7  19356620.195 7 103326924.495 7  80365466.516 7  19356619.254 7
  22120749.242 5                 118331086.316 5                
 23  9 22 16 21 15.0000000  0 14G10G15G16G18G23G27G29G32R06R07R08R21
                                R22R23
  20994753.094 7  20994760.535 8 110328185.551 7  85970047.579 8  20994761.39549
  22442146.266 6  22442153.090 7 117934250.978 6  91896829.353 7  22442153.66047
  23997874.703 5                 126109629.229 5  98267272.50046  23997882.19146
  21058496.508 6  21058501.902 8 110663136.889 6  86231032.173 8  21058502.78147
  20479675.313 7  20479680.406 8 107621415.199 7  83860889.492 8  20479681.27347
  21568255.586 6  21568263.648 8 113341951.131 6  88318426.979 8  21568264.27748
  24593031.258 3  24593042.746 8 129237186.418 3 100704283.797 8  24593043.30547
  23679042.250 6  23679051.742 8 124434226.083 6  96961774.306 8  23679051.82047
  21590280.961 2                 115209846.276 2                
  19103926.266 8  19103931.328 7 102264821.626 8  79539317.514 7  19103930.996 7
  20771134.078 6  20771139.789 7 111228510.516 6  86511105.021 7  20771140.070 7
  20925693.469 7  20925699.418 7 111977641.741 7  87093724.762 7  20925700.063 7
  19349697.891 7  19349702.215 7 103289998.530 7  80336746.321 7  19349701.973 7
  22106065.063 5                 118252541.454 5                
 23  9 22 16 21 30.0000000  0 14G10G15G16G18G23G27G29G32R06R07R08R21
                                R22R23
  20986948.531 7  20986955.398 8 110287170.594 7  85938087.885 8  20986956.53949
  22445160.773 6  22445167.941 7 117950091.839 6  91909172.851 7  22445168.54747
  23999404.344 5                 126117668.824 5  98273537.02645  23999412.64845
  21056780.773 6  21056786.980 8 110654122.369 6  86224007.851 8  21056787.17646
  20477602.867 7  20477607.391 8 107610522.836 7  83852401.920 8  20477607.75447
  21558443.492 6  21558451.875 8 113290388.562 6  88278248.363 8  21558452.05548
  24599071.000 4  24599081.789 8 129268924.062 4 100729014.306 8  24599082.92247
  23664130.039 6  23664140.324 8 124355862.869 6  96900712.101 8  23664140.56647
  21595527.273 2                 115237829.970 2                
  19099925.313 7  19099930.813 7 102243400.628 7  79522656.722 7  19099929.980 7
  20757310.703 6  20757315.391 7 111154485.307 6  86453529.897 7  20757315.563 7
  20927487.945 7  20927494.227 7 111987238.813 7  87101189.114 7  20927494.281 7
  19342802.266 7  19342807.070 7 103253191.706 7  80308118.781 7  19342806.719 7
  22091386.180 5                 118174011.679 5                
 23  9 22 16 21 45.0000000  0 14G10G15G16G18G23G27G29G32R06R07R08R21
                                R22R23
  20979158.102 7  20979165.449 8 110246232.497 7  85906188.063 8  20979166.44149
  22448195.086 6  22448202.977 7 117966039.377 6  91921599.444 7  22448203.38347
  24000947.555 5                 126125778.063 5  98279855.89045  24000955.62145
  21055079.414 6  21055085.090 8 110645179.710 6  86217039.526 8  21055085.64147
  20475543.172 7  20475548.301 8 107599703.028 7  83843970.883 8  20475548.49647
  21548655.570 6  21548663.375 8 113238953.126 6  88238168.801 8  21548663.97748
  24605114.094 3  24605125.902 7 129300682.718 3 100753761.165 7  24605125.74246
  23649223.633 5  23649234.328 8 124277531.145 5  96839674.444 8  23649234.49247
  21600783.156 2                 115265887.669 2                
  19095957.039 7  19095962.637 7 102222162.151 7  79506137.899 7  19095962.375 7
  20743510.352 6  20743515.879 7 111080584.896 6  86396051.841 7  20743515.500 7
  20929302.500 6  20929307.813 7 111996948.463 6  87108741.018 7  20929308.336 7
  19335929.766 7  19335933.703 7 103216504.322 7  80279584.158 7  19335933.344 7
  22076708.484 5                 118095497.146 5                
 23  9 22 16 22  0.0000000  0 15G08G10G15G16G18G23G27G29G32R06R07R08
                                R21R22R23
  24527618.242 3  24527628.684 7 128893524.64513 100436542.49917  24527628.33246
  20971382.711 7  20971389.793 8 110205372.051 7  85874348.757 8  20971390.30949
  22451250.156 6  22451256.898 7 117982093.710 6  91934109.257 7  22451258.44547
  24002504.570 5                 126133957.183 5  98286229.16545  24002512.50445
  21053391.664 6  21053397.328 8 110636309.463 6  86210127.641 8  21053397.80546
  20473498.984 7  20473503.641 8 107588956.168 7  83835596.693 8  20473504.03547
  21538892.188 6  21538900.734 8 113187645.598 6  88198188.920 8  21538900.78948
  24611162.320 4  24611172.863 7 129332462.667 4 100778524.604 7  24611173.24647
  23634323.680 5  23634334.109 8 124199231.729 5  96778661.972 8  23634334.18047
  21606056.125 2                 115294019.110 2                
  19092023.102 7  19092030.281 7 102201106.303 7  79489761.112 7  19092028.281 7
  20729732.859 6  20729739.492 7 111006810.058 6  86338671.447 7  20729738.656 7
  20931137.531 6  20931143.332 7 112006771.229 6  87116380.897 7  20931144.328 7
  19329079.203 7  19329082.789 7 103179937.321 7  80251143.147 7  19329082.984 7
  22062035.344 5                 118016998.982 5                
 23  9 22 16 22 15.0000000  0 15G08G10G15G16G18G23G27G29G32R06R07R08
                                R21R22R23
  24513654.156 3  24513664.703 7 128820146.032 3 100379364.299 7  24513665.05546
  20963621.359 7  20963628.566 8 110164588.518 7  85842569.389 8  20963629.85549
  22454325.961 6  22454333.137 7 117998253.868 6  91946701.547 7  22454333.27747
  24004072.727 5                 126142205.060 5  98292656.05445  24004082.01645
  21051717.578 6  21051722.340 8 110627511.062 6  86203271.730 8  21051723.31647
  20471467.602 6  20471471.672 8 107578281.422 6  83827278.689 8  20471472.21547
  21529153.391 6  21529160.676 8 113136465.573 6  88158308.390 8  21529161.14848
  24617213.789 4  24617224.754 7 129364262.910 4 100803303.829 7  24617225.53147
  23619430.094 5  23619440.191 8 124120964.293 5  96717674.414 8  23619440.60247
  21611341.133 2                 115322223.176 2                
  19088124.625 8  19088130.188 7 102180232.571 8  79473525.973 7  19088129.125 7
  20715980.117 6  20715985.680 7 110933160.464 6  86281388.462 7  20715985.035 7
  20932994.477 7  20933001.227 7 112016706.318 7  87124108.136 7  20933001.164 7
  19322251.836 7  19322255.344 7 103143490.189 7  80222795.377 7  19322255.488 7
  22047361.625 5                 117938516.387 5                
 23  9 22 16 22 30.0000000  0 16G08G10G15G16G18G23G24G27G29G32R06R07
                                R08R21R22R23
  24499702.406 2  24499713.684 7 128746824.705 2 100322230.763 7  24499712.77746
  20955875.828 7  20955882.793 8 110123884.026 7  85810851.601 8  20955883.78149
  22457420.922 6  22457427.738 7 118014521.792 6  91959377.820 7  22457428.72747
  24005656.484 5                 126150523.802 5  98299138.14545  24005665.09845
  21050057.094 6  21050062.273 8 110618786.898 6  86196473.660 8  21050063.20346
  20469450.414 6  20469455.555 8 107567680.958 6  83819018.568 8  20469455.66847
  24360387.695 4  24360401.301 7 128014703.35814  99751746.47917  24360401.81646
  21519438.078 6  21519446.355 8 113085415.596 6  88118529.190 8  21519446.56648
  24623270.930 5  24623281.105 7 129396085.426 5 100828100.409 7  24623281.60947
  23604542.625 5  23604552.766 8 124042731.558 5  96656713.895 8  23604553.59447
  21616641.641 2                 115350501.841 2                
  19084259.148 7  19084264.133 7 102159542.816 7  79457433.925 7  19084264.027 7
  20702249.563 6  20702255.441 7 110859638.700 6  86224204.905 7  20702255.496 7
  20934872.719 6  20934878.488 7 112026756.042 6  87131924.535 7  20934879.250 7
  19315446.742 7  19315450.230 7 103107165.737 7  80194543.025 7  19315450.484 7
  22032694.109 5                 117860052.408 5                
 23  9 22 16 22 45.0000000  0 16G08G10G15G16G18G23G24G27G29G32R06R07
                                R08R21R22R23
  24485759.852 3  24485770.152 7 128673559.210 3 100265140.715 7  24485769.96546
  20948144.797 7  20948151.809 8 110083256.412 7  85779193.723 8  20948152.76249
  22460538.195 6  22460543.672 7 118030895.006 6  91972136.117 7  22460544.67247
  24007252.266 5                 126158910.508 5  98305673.15645  24007261.00045
  21048410.688 6  21048416.402 8 110610134.835 6  86189731.781 8  21048416.66846
  20467446.664 6  20467451.063 8 107557152.400 6  83810814.477 8  20467451.80947
  24349870.609 5  24349883.246 7 127959429.945 5  99708676.249 7  24349884.16846
  21509748.031 6  21509756.324 8 113034493.815 6  88078849.877 8  21509756.71148
  24629329.891 5  24629340.355 7 129427927.698 5 100852912.430 7  24629340.82047
  23589661.273 5  23589671.711 8 123964531.563 5  96595778.890 8  23589672.26647
  21621953.297 2                 115378852.239 2                
  19080427.797 7  19080434.578 7 102139034.852 7  79441483.279 7  19080433.953 7
  20688543.383 6  20688549.422 7 110786243.038 6  86167119.436 7  20688549.113 7
  20936771.539 7  20936777.141 7 112036918.158 7  87139828.396 7  20936777.434 7
  19308663.852 7  19308668.059 7 103070961.868 7  80166384.442 7  19308668.289 7
  22018029.336 5                 117781605.197 5                
 23  9 22 16 23  0.0000000  0 16G08G10G15G16G18G23G24G27G29G32R06R07
                                R08R21R22R23
  24471829.555 3  24471840.164 7 128600350.811 3 100208095.183 7  24471839.70346
  20940427.961 7  20940435.758 8 110042706.580 7  85747596.455 8  20940436.43449
  22463673.195 6  22463679.855 7 118047374.255 6  91984977.045 7  22463680.60247
  24008861.703 5                 126167366.133 5  98312261.87245  24008869.52345
  21046778.352 6  21046784.168 8 110601555.942 6  86183046.915 8  21046784.50847
  20465456.914 6  20465462.059 8 107546696.598 6  83802667.068 8  20465462.43847
  24339366.266 4  24339379.352 7 127904232.689 4  99665665.377 7  24339380.77346
  21500082.977 6  21500091.465 8 112983701.398 6  88039271.376 8  21500091.35248
  24635392.375 5  24635403.012 7 129459790.661 5 100877740.541 7  24635403.68047
  23574787.188 5  23574797.840 8 123886365.686 5  96534870.483 8  23574797.96547
  21627279.508 2                 115407275.187 2                
  19076631.164 7  19076636.504 7 102118709.204 7  79425674.429 7  19076636.012 7
  20674861.930 6  20674867.285 7 110712974.841 6  86110133.089 7  20674866.496 7
  20938691.555 7  20938696.762 7 112047193.479 7  87147820.265 7  20938698.109 7
  19301905.594 7  19301910.809 7 103034879.967 7  80138320.720 7  19301909.824 7
  22003368.523 5                 117703175.827 5                
 23  9 22 16 23 15.0000000  0 16G08G10G15G16G18G23G24G27G29G32R06R07
                                R08R21R22R23
  24457908.508 3  24457919.238 7 128527197.848 3 100151092.810 7  24457918.65246
  20932726.695 7  20932733.359 8 110002232.708 7  85716058.375 8  20932734.31349
  22466828.609 6  22466834.949 7 118063957.239 6  91997898.805 7  22466835.64547
  24010483.633 5                 126175888.285 5  98318902.47245  24010491.25045
  21045159.617 6  21045164.875 8 110593048.494 6  86176417.727 8  21045165.35247
  20463480.453 7  20463484.969 8 107536311.575 7  83794574.831 8  20463485.75047
  24328877.609 5  24328890.102 7 127849110.182 5  99622712.752 7  24328891.21546
  21490441.789 6  21490449.836 8 112933036.828 6  87999792.491 8  21490450.30148
  24641458.633 5  24641470.516 7 129491672.150 5 100902583.134 7  24641470.66846
  23559919.258 5  23559929.273 8 123808232.416 5  96473987.472 8  23559929.30147
  21632618.453 1                 115435768.144 1                
  19072867.477 7  19072873.727 7 102098564.031 7  79410005.960 7  19072873.023 7
  20661203.336 6  20661208.234 7 110639832.327 6  86053244.509 7  20661207.457 7
  20940633.336 7  20940639.398 7 112057580.186 7  87155898.775 7  20940639.453 7
  19295168.719 7  19295172.848 7 102998918.568 7  80110350.732 7  19295172.418 7
  21988710.766 6                 117624763.045 6                
 23  9 22 16 23 30.0000000  0 16G08G10G15G16G18G23G24G27G29G32R06R07
                                R08R21R22R23
  24443998.828 2  24444009.391 7 128454101.814 2 100094134.810 7  24444008.85546
  20925038.797 7  20925045.953 8 109961835.487 7  85684580.025 8  20925046.97749
  22470004.977 6  22470010.570 7 118080644.601 6  92010901.892 7  22470011.46947
  24012118.125 5                 126184477.554 5  98325595.36445  24012125.87945
  21043554.203 6  21043559.508 8 110584613.436 6  86169844.932 8  21043560.44146
  20461518.273 6  20461523.172 8 107525998.107 6  83786538.340 8  20461523.63347
  24318402.375 4  24318415.441 7 127794063.788 4  99579819.432 7  24318416.12146
  21480825.484 6  21480833.609 8 112882501.254 6  87960414.126 8  21480833.41048
  24647530.188 5  24647541.520 7 129523572.887 5 100927440.697 7  24647541.32447
  23545057.547 5  23545067.168 8 123730133.083 5  96413130.907 8  23545067.66047
  21637972.281 2                 115464331.744 2                
  19069138.227 7  19069144.070 7 102078600.162 7  79394478.501 7  19069143.664 7
  20647567.977 6  20647573.215 7 110566816.892 6  85996454.761 7  20647572.672 7
  20942594.352 6  20942598.938 7 112068079.083 6  87164064.555 7  20942600.750 6
  19288454.898 7  19288459.145 7 102963078.788 7  80082475.345 7  19288458.391 7
  21974054.633 5                 117546368.143 5                
 23  9 22 16 23 45.0000000  0 16G08G10G15G16G18G23G24G27G29G32R06R07
                                R08R21R22R23
  24430100.578 3  24430110.762 7 128381062.212 3 100037220.778 7  24430110.56646
  20917366.203 7  20917373.898 8 109921514.599 7  85653161.155 8  20917374.46549
  22473200.070 6  22473206.527 7 118097435.500 6  92023985.661 7  22473207.70747
  24013764.750 5                 126193133.183 5  98332339.98045  24013772.55945
  21041962.883 6  21041968.098 8 110576250.335 6  86163328.217 8  21041969.16847
  20459568.961 6  20459573.969 8 107515755.496 6  83778557.072 8  20459574.25447
  24307941.906 4  24307954.555 7 127739093.335 4  99536985.293 7  24307954.71946
  21471233.609 6  21471240.898 8 112832094.459 6  87921136.102 8  21471241.21948
  24653604.242 5  24653615.773 7 129555491.942 5 100952312.491 7  24653615.71947
  23530201.602 6  23530212.141 8 123652067.428 6  96352300.583 8  23530212.17247
  21643339.133 2                 115492965.021 2                
  19065442.594 7  19065447.793 7 102058816.802 7  79379091.439 7  19065447.480 7
  20633956.164 6  20633961.602 7 110493928.578 6  85939763.883 7  20633961.059 7
  20944577.234 7  20944583.730 7 112078689.770 7  87172317.274 7  20944583.902 7
  19281762.719 7  19281766.461 7 102927360.385 7  80054694.358 7  19281767.316 7
  21959403.297 5                 117467990.763 5                
 23  9 22 16 24  0.0000000  0 16G08G10G15G16G18G23G24G27G29G32R06R07
                                R08R21R22R23
  24416211.898 3  24416222.469 7 128308078.434 3  99980350.272 7  24416222.30546
  20909707.414 7  20909715.320 8 109881268.886 7  85621800.861 8  20909716.16049
  22476413.602 6  22476421.148 7 118114328.534 6  92037148.996 7  22476421.74647
  24015423.703 5                 126201853.738 5  98339135.13445  24015432.24645
  21040385.211 6  21040391.164 8 110567958.238 6  86156866.823 8  21040390.86747
  20457633.742 6  20457638.441 8 107505582.562 6  83770630.089 8  20457638.91447
  24297495.969 4  24297508.605 7 127684198.126 4  99494209.781 7  24297508.85246
  21461665.398 6  21461673.762 8 112781815.605 6  87881957.779 8  21461673.61348
  24659681.672 6  24659691.836 7 129587428.045 6 100977197.632 7  24659692.81647
  23515352.500 6  23515362.820 8 123574034.782 6  96291495.975 8  23515363.00447
  21648717.570 2                 115521666.284 2                
  19061780.688 7  19061785.902 7 102039212.789 7  79363843.854 7  19061785.777 7
  20620367.422 6  20620374.246 7 110421166.374 6  85883171.100 7  20620373.234 7
  20946581.484 7  20946587.996 7 112089411.021 7  87180655.967 7  20946587.582 7
  19275095.055 7  19275097.398 7 102891762.749 7  80027007.299 7  19275098.316 7
  21944754.992 5                 117389630.311 5                
 23  9 22 16 24 15.0000000  0 16G08G10G15G16G18G23G24G27G29G32R06R07
                                R08R21R22R23
  24402334.750 4  24402344.410 7 128235150.911 4  99923523.622 7  24402344.17646
  20902063.617 7  20902070.563 8 109841098.372 7  85590499.159 8  20902071.53949
  22479648.719 6  22479655.602 7 118131323.380 6  92050391.695 7  22479656.27047
  24017095.648 5                 126210638.906 5  98345980.72345  24017104.14545
  21038820.648 6  21038826.410 8 110559737.258 6  86150460.847 8  21038826.70347
  20455710.625 6  20455715.594 8 107495479.208 6  83762757.339 8  20455715.97747
  24287063.766 4  24287076.730 7 127629378.697 4  99451493.329 7  24287077.24246
  21452122.047 6  21452130.020 8 112731665.005 6  87842879.393 8  21452129.90248
  24665761.953 6  24665772.672 7 129619380.992 6 101002095.891 7  24665773.29347
  23500509.758 6  23500519.801 8 123496035.503 6  96230717.369 8  23500520.13747
  21654109.602 2                 115550435.229 2                
  19058152.070 8  19058156.590 7 102019787.812 8  79348735.543 7  19058156.383 7
  20606804.039 6  20606809.035 7 110348530.486 6  85826676.560 7  20606808.375 7
  20948604.859 7  20948611.066 7 112100242.811 7  87189080.653 7  20948611.477 7
  19268449.375 8  19268453.043 7 102856285.999 8  79999414.260 7  19268452.555 7
  21930108.578 5                 117311287.034 5                
 23  9 22 16 24 30.0000000  0 16G08G10G15G16G18G23G24G27G29G32R06R07
                                R08R21R22R23
  24388467.016 4  24388477.637 7 128162279.536 4  99866740.701 7  24388477.60546
  20894433.352 7  20894440.086 8 109801002.327 7  85559255.497 8  20894441.62949
  22482901.547 6  22482909.195 7 118148419.165 6  92063713.040 7  22482909.45747
  24018780.172 5                 126219487.672 5  98352875.76345  24018787.80945
  21037269.570 6  21037274.887 8 110551586.782 6  86144109.812 8  21037275.15647
  20453801.492 7  20453805.633 8 107485444.557 7  83754938.114 8  20453806.21147
  24276646.203 4  24276659.168 7 127574634.729 4  99408835.674 7  24276659.06346
  21442603.141 6  21442611.441 8 112681642.249 6  87803900.627 8  21442611.75848
  24671845.617 6  24671856.039 7 129651349.751 6 101027006.439 7  24671857.42647
  23485673.031 6  23485683.230 8 123418069.257 6  96169964.513 8  23485683.30947
  21659513.648 1                 115579270.706 1                
  19054556.375 7  19054561.137 7 102000541.149 7  79333765.895 7  19054560.836 7
  20593263.727 6  20593268.707 7 110276020.724 6  85770280.106 7  20593268.547 7
  20950649.586 7  20950655.641 7 112111184.316 7  87197590.680 7  20950656.285 7
  19261825.641 7  19261828.117 7 102820929.844 7  79971915.031 7  19261828.996 7
  21915466.156 5                 117232960.897 5                
 23  9 22 16 24 45.0000000  0 16G08G10G15G16G18G23G24G27G29G32R06R07
                                R08R21R22R23
  24674404.430 2  24674414.004 7 129664890.819 2 101037606.580 7  24674413.88746
  21186610.813 7  21186617.965 8 111336404.697 7  86755672.928 8  21186618.85249
  22785966.492 6  22785973.813 7 119741035.823 6  93304712.976 7  22785974.37547
  24320269.234 5                 127803820.453 5  99587420.79345  24320276.55145
  21335524.492 6  21335530.074 8 112118928.867 6  87365415.304 8  21335530.15246
  20751697.758 6  20751702.703 8 109050900.595 6  84974773.973 8  20751703.28147
  24566036.422 3  24566049.625 7 129095391.677 3 100593841.083 7  24566049.98446
  21732902.031 6  21732909.727 8 114207172.323 6  88992625.376 8  21732909.84448
  24977724.297 6  24977734.430 7 131258753.471 6 102279528.691 7  24977736.16846
  23770637.219 6  23770646.953 8 124915563.011 6  97336842.805 8  23770646.91047
  21964719.125 2                 117207921.767 2                
  19350786.977 7  19350792.977 7 103586287.767 7  80567124.363 7  19350792.098 7
  20879540.516 6  20879544.941 7 111809018.679 6  86962611.893 7  20879544.492 7
  21252507.805 7  21252514.172 7 113726486.282 7  88453936.614 7  21252513.523 7
  19555018.102 7  19555021.594 8 104386010.887 7  81189200.272 8  19555021.551 7
  22200621.109 5                 118758346.196 5                
 23  9 22 16 25  0.0000000  0 16G08G10G15G16G18G23G24G27G29G32R06R07
                                R08R21R22R23
  24660560.023 3  24660569.742 7 129592133.834 3 100980912.811 7  24660569.06346
  21179009.336 7  21179016.500 8 111296458.874 7  86724546.318 8  21179017.38349
  22789258.523 6  22789265.238 7 119758333.887 6  93318191.953 7  22789266.19147
  24321976.820 5                 127812796.419 5  99594414.98445  24321984.81645
  21334001.273 7  21334006.188 8 112110921.043 7  87359175.427 8  21334006.41047
  20749814.273 6  20749819.281 8 109041004.356 6  84967062.599 8  20749819.82847
  24555648.242 3  24555661.668 7 129040801.241 3 100551303.083 7  24555661.81346
  21723432.281 6  21723440.188 8 114157407.394 6  88953847.517 8  21723440.00448
  24983813.883 6  24983824.301 7 131290754.699 6 102304464.576 7  24983826.03947
  23755813.281 6  23755823.313 8 124837665.260 6  97276143.323 8  23755823.48047
  21970150.609 1                 117236890.414 1                
  19347258.281 7  19347264.059 7 103567398.368 7  80552432.608 7  19347263.531 7
  20866046.367 6  20866052.395 7 111736763.509 6  86906413.462 7  20866051.992 7
  21254594.398 7  21254600.855 7 113737648.676 7  88462618.460 7  21254600.207 7
  19548439.820 7  19548443.758 7 104350898.282 7  81161890.475 7  19548444.086 7
  22185985.523 5                 118680056.406 5                
 23  9 22 16 25 15.0000000  0 16G08G10G15G16G18G23G24G27G29G32R06R07
                                R08R21R22R23
  24646726.078 3  24646736.621 7 129519435.177 3 100924264.433 7  24646735.66046
  21171422.219 7  21171429.875 8 111256588.934 7  86693478.828 8  21171430.65649
  22792568.703 6  22792576.211 7 119775733.345 6  93331749.929 7  22792577.20347
  24323697.727 5                 127821836.443 5  99601459.12445  24323704.59845
  21332491.250 6  21332496.535 8 112102985.475 6  87352991.840 8  21332496.76246
  20747944.930 7  20747949.332 8 109031177.899 7  84959405.606 8  20747949.80547
  24545275.055 3  24545288.883 7 128986288.973 3 100508826.014 7  24545288.78546
  21713986.805 6  21713994.621 8 114107772.582 6  88915171.031 8  21713995.22748
  24989907.664 6  24989918.453 7 131322772.446 6 102329413.297 7  24989919.54347
  23740996.367 6  23741006.582 8 124759803.081 6  97215471.547 8  23741006.40647
  21975591.648 2                 117265925.771 2                
  19343763.430 7  19343769.176 7 103548688.233 7  80537880.274 7  19343768.230 7
  20852577.695 6  20852582.484 7 111664637.108 6  86850315.191 7  20852582.438 7
  21256701.234 7  21256706.215 7 113748922.091 7  88471386.658 7  21256706.039 7
  19541885.875 7  19541888.559 7 104315908.711 7  81134676.352 7  19541888.438 7
  22171354.000 5                 118601786.246 5                
 23  9 22 16 25 30.0000000  0 15G08G10G15G16G18G23G24G27G32R06R07R08
                                R21R22R23
  24632903.391 4  24632913.113 7 129446795.269 4 100867661.828 7  24632912.55946
  21163849.891 7  21163857.203 8 111216794.686 7  86662470.325 8  21163857.60249
  22795899.078 6  22795906.539 7 119793233.775 6  93345386.556 7  22795907.11747
  24325430.164 5                 127830940.269 5  99608552.90445  24325437.85545
  21330994.648 6  21330999.691 8 112095122.154 6  87346864.556 8  21331000.05946
  20746087.758 6  20746092.172 8 109021421.023 6  84951802.832 8  20746092.69947
  24534916.398 3  24534929.273 7 128931855.189 3 100466410.099 7  24534930.23846
  21704566.086 6  21704573.793 8 114058268.052 6  88876596.087 8  21704574.48048
  23726186.039 6  23726196.902 8 124681976.729 6  97154827.687 8  23726196.77347
  21981046.156 2                 117295027.385 2                
  19340301.414 8  19340307.434 7 103530156.779 8  80523466.923 7  19340306.500 7
  20839132.547 6  20839137.977 7 111592639.699 6  86794317.234 7  20839137.434 7
  21258828.234 7  21258833.590 7 113760306.595 7  88480241.230 7  21258834.230 7
  19535353.727 7  19535356.781 7 104281042.446 7  81107558.155 7  19535357.074 7
  22156725.805 5                 118523535.868 5                
 23  9 22 16 25 45.0000000  0 15G08G10G15G16G18G23G24G27G32R06R07R08
                                R21R22R23
  24619091.578 4  24619100.926 7 129374214.313 4 100811105.246 7  24619101.17646
  21156291.539 7  21156298.250 8 111177075.754 7  86631520.511 8  21156299.37949
  22799248.336 6  22799256.281 7 119810834.514 6  93359101.369 7  22799256.41447
  24327173.953 4                 127840106.991 4  99615695.78545  24327182.21945
  21329512.328 6  21329517.754 8 112087330.784 6  87340793.345 8  21329518.21946
  20744244.398 6  20744248.816 8 109011733.191 6  84944253.858 8  20744249.21547
  24524573.617 3  24524586.016 7 128877499.937 3 100424055.365 7  24524586.20346
  21695170.789 6  21695178.602 8 114008893.723 6  88838122.587 8  21695178.69148
  23711383.430 6  23711394.332 8 124604186.215 6  97094211.745 8  23711394.00047
  21986511.047 1                 117324194.320 1                
  19336872.992 7  19336878.762 7 103511803.771 7  80509192.351 7  19336877.926 7
  20825712.055 6  20825716.559 7 111520770.963 6  86738419.362 7  20825716.355 7
  21260976.391 7  21260981.449 7 113771801.664 7  88489181.797 7  21260981.855 7
  19528844.750 7  19528849.797 7 104246299.259 7  81080535.655 7  19528848.625 7
  22142101.383 5                 118445305.235 5                
 23  9 22 16 26  0.0000000  0 15G08G10G15G16G18G23G24G27G32R06R07R08
                                R21R22R23
  24605291.289 4  24605301.480 7 129301693.438 4 100754595.444 7  24605300.82846
  21148747.508 7  21148754.539 8 111137433.154 7  86600630.173 8  21148755.93449
  22802617.695 6  22802623.527 7 119828536.281 6  93372894.905 7  22802624.59047
  24328929.977 4                 127849337.364 4  99622888.20745  24328938.67645
  21328043.805 7  21328048.945 8 112079612.684 7  87334779.222 8  21328048.87946
  20742414.320 7  20742418.719 8 109002115.492 7  84936759.535 8  20742419.30547
  24514244.305 3  24514257.590 7 128823224.816 3 100381763.096 7  24514257.64146
  21685799.891 6  21685807.984 8 113959651.027 6  88799751.663 8  21685808.48848
  23696587.813 5  23696596.746 8 124526433.039 5  97033624.912 8  23696598.10547
  21991989.086 1                 117353427.418 1                
  19333478.156 8  19333484.207 7 103493630.013 8  80495057.183 7  19333482.695 7
  20812315.063 7  20812319.418 7 111449032.969 7  86682623.175 7  20812319.820 7
  21263146.094 7  21263150.551 7 113783408.499 7  88498209.304 7  21263151.191 7
  19522360.234 7  19522363.262 7 104211680.897 7  81053610.258 7  19522363.465 7
  22127481.219 5                 118367096.259 5                
 23  9 22 16 26 15.0000000  0 15G08G10G15G16G18G23G24G27G32R06R07R08
                                R21R22R23
  24591502.102 4  24591512.871 8 129229233.776 4 100698133.294 8  24591512.68046
  21141218.750 7  21141225.746 8 111097867.341 7  86569799.673 8  21141226.59049
  22806005.297 5  22806012.246 7 119846339.134 5  93386767.241 7  22806012.96547
  24330698.953 4                 127858631.354 4  99630130.21245  24330707.02345
  21326588.734 6  21326593.430 8 112071968.187 6  87328822.445 8  21326594.26247
  20740597.320 7  20740602.047 8 108992568.015 7  84929319.928 8  20740602.69947
  24503931.805 2  24503944.488 7 128769030.549 2 100339533.821 7  24503944.85946
  21676454.734 6  21676462.266 8 113910540.529 6  88761483.753 8  21676462.60948
  23681798.422 6  23681809.340 8 124448717.872 6  96973067.699 8  23681808.96547
  21997480.305 1                 117382726.393 1                
  19330116.156 7  19330121.496 7 103475635.835 7  80481061.711 7  19330121.305 7
  20798942.695 7  20798948.563 7 111377425.986 7  86626928.891 7  20798947.906 7
  21265335.195 7  21265340.895 7 113795127.220 7  88507323.826 7  21265341.539 7
  19515898.414 7  19515902.535 7 104177187.850 7  81026782.313 7  19515902.320 7
  22112864.453 5                 118288909.313 5                
 23  9 22 16 26 30.0000000  0 15G08G10G15G16G18G23G24G27G32R06R07R08
                                R21R22R23
  24577725.172 4  24577736.473 8 129156835.327 4 100641718.877 8  24577735.64846
  21133704.117 7  21133711.766 8 111058378.306 7  86539028.999 8  21133712.35248
  22809411.836 6  22809418.934 7 119864242.951 6  93400718.205 7  22809419.11747
  24332479.219 4                 127867988.764 4  99637421.61945  24332487.95745
  21325148.047 6  21325153.543 8 112064397.479 6  87322923.186 8  21325153.47746
  20738793.719 6  20738797.840 8 108983090.729 6  84921935.017 8  20738798.70746
  24493634.125 2  24493647.395 7 128714917.59712 100297367.92817  24493647.73846
  21667134.875 6  21667142.586 8 113861562.547 6  88723319.092 8  21667142.98848
  23667017.695 6  23667027.914 8 124371041.105 6  96912540.401 8  23667027.41047
  22002982.516 1                 117412091.111 1                
  19326788.344 8  19326794.242 7 103457821.022 8  80467205.739 7  19326793.383 7
  20785595.414 7  20785601.395 7 111305950.567 7  86571336.933 7  20785600.430 7
  21267546.242 7  21267552.008 7 113806957.915 7  88516525.416 7  21267552.063 7
  19509459.859 7  19509464.668 7 104142820.409 7  81000052.078 7  19509464.254 7
  22098251.930 5                 118210744.815 5                
 23  9 22 16 26 45.0000000  0 15G08G10G15G16G18G23G24G27G32R06R07R08
                                R21R22R23
  24563959.828 3  24563970.246 8 129084495.320 3 100585350.016 8  24563970.16846
  21126203.891 7  21126210.125 8 111018962.956 7  86508315.733 8  21126210.92249
  22812838.094 6  22812843.652 7 119882244.306 6  93414745.212 7  22812844.42247
  24334271.055 4                 127877406.079 4  99644759.76045  24334280.06345
  21323721.609 7  21323725.691 8 112056897.591 7  87317079.105 8  21323726.04746
  20737002.945 7  20737008.594 8 108973680.470 7  84914602.341 8  20737008.44947
  24483351.609 3  24483364.668 7 128660883.315 3 100255263.312 7  24483365.09046
  21657839.000 6  21657846.434 8 113812714.324 6  88685255.544 8  21657847.11348
  23652242.406 6  23652252.914 8 124293400.117 6  96852040.975 8  23652253.09847
  22008497.727 1                 117441517.998 1                
  19323493.570 7  19323498.461 7 103440182.258 7  80453486.698 7  19323498.434 7
  20772271.750 6  20772277.137 7 111234603.446 6  86515844.753 7  20772277.094 7
  21269777.430 7  21269783.277 7 113818897.561 7  88525811.802 7  21269783.215 7
  19503045.211 7  19503048.523 7 104108575.935 7  80973417.484 7  19503048.934 7
  22083645.766 5                 118132600.265 5                
 23  9 22 16 27  0.0000000  0 15G08G10G15G16G18G23G24G27G32R06R07R08
                                R21R22R23
  24550204.969 4  24550216.398 8 129012217.774 4 100529029.794 8  24550216.32446
  21118717.711 7  21118725.070 8 110979624.594 7  86477662.474 8  21118725.42648
  22816282.578 6  22816287.973 7 119900346.143 6  93428850.498 7  22816288.68447
  24336076.406 5                 127886886.409 5  99652146.94445  24336083.90245
  21322308.289 6  21322312.945 8 112049472.008 6  87311292.917 8  21322313.43446
  20735225.891 6  20735230.324 8 108964340.469 6  84907324.404 8  20735230.73847
  24473084.984 3  24473098.285 7 128606931.493 3 100213222.966 7  24473099.19146
  21648568.672 6  21648576.355 8 113763999.468 6  88647295.924 8  21648576.97748
  23637475.828 6  23637485.082 8 124215798.580 6  96791572.275 8  23637485.63347
  22014023.836 1                 117471009.999 1                
  19320231.383 7  19320236.863 7 103422722.637 7  80439906.975 7  19320236.453 7
  20758972.648 7  20758978.965 7 111163389.089 7  86460455.846 7  20758978.059 7
  21272029.109 7  21272035.051 7 113830949.484 7  88535185.469 7  21272035.695 7
  19496653.547 7  19496657.438 7 104074458.128 7  80946881.409 7  19496657.336 7
  22069040.859 5                 118054479.169 5                
 23  9 22 16 27 15.0000000  0 15G08G10G15G16G18G23G24G27G32R06R07R08
                                R21R22R23
  24536462.602 3  24536475.051 7 128940002.127 3 100472757.828 7  24536473.67246
  21111246.570 7  21111253.621 8 110940362.607 7  86447068.723 8  21111254.21148
  22819746.273 6  22819752.508 7 119918547.521 6  93443033.376 7  22819753.16047
  24337891.859 4                 127896428.788 4  99659582.49445  24337900.11745
  21320908.945 6  21320914.367 8 112042120.103 6  87305564.144 8  21320913.88746
  20733461.930 6  20733466.645 8 108955069.907 6  84900100.582 8  20733466.94947
  24462833.953 3  24462847.758 7 128553061.905 3 100171246.722 7  24462848.05946
  21639323.813 6  21639331.453 8 113715417.609 6  88609439.940 8  21639331.96548
  23622716.242 6  23622725.949 8 124138236.177 6  96731134.094 8  23622726.09047
  22019562.086 2                 117500565.978 2                
  19317003.547 7  19317009.227 7 103405441.747 7  80426466.276 7  19317008.727 7
  20745698.250 7  20745703.602 7 111092306.518 7  86405169.444 7  20745703.797 7
  21274302.625 7  21274308.898 7 113843112.782 7  88544645.758 7  21274309.305 7
  19490286.047 7  19490289.098 7 104040466.542 7  80920443.500 7  19490289.758 7
  22054440.305 5                 117976381.496 5                
 23  9 22 16 27 30.0000000  0 15G08G10G15G16G18G23G24G27G32R06R07R08
                                R21R22R23
  24522732.992 3  24522743.363 7 128867847.343 3 100416533.308 7  24522743.48846
  21103789.586 7  21103796.727 8 110901174.875 7  86416532.834 8  21103797.29349
  22823227.461 5  22823234.730 7 119936846.236 5  93457292.036 7  22823235.79347
  24339719.125 4                 127906030.883 4  99667064.63945  24339727.34445
  21319523.633 6  21319528.645 8 112034839.977 6  87299891.300 8  21319528.91846
  20731710.469 6  20731714.641 8 108945866.632 6  84892929.181 8  20731715.25047
  24452597.648 3  24452611.711 7 128499272.869 3 100129333.244 7  24452612.44146
  21630103.742 6  21630112.184 8 113666966.922 6  88571686.159 8  21630112.57048
  23607963.328 6  23607972.617 8 124060711.272 6  96670725.114 8  23607973.22347
  22025113.445 2                 117530183.399 2                
  19313808.039 7  19313813.809 7 103388336.646 7  80413162.307 7  19313813.566 7
  20732448.383 7  20732454.652 7 111021354.495 7  86349984.557 7  20732454.277 7
  21276595.859 7  21276600.602 7 113855385.357 7  88554191.051 7  21276602.770 6
  19483941.367 7  19483945.988 7 104006599.573 7  80894102.526 7  19483945.336 7
  22039845.313 5                 117898305.392 5                
 23  9 22 16 27 45.0000000  0 15G08G10G15G16G18G23G24G27G32R06R07R08
                                R21R22R23
  24509013.891 3  24509025.773 8 128795754.516 3 100360357.033 8  24509024.90246
  21096346.938 7  21096353.387 8 110862063.167 7  86386056.184 8  21096354.19949
  22826729.164 5  22826736.371 7 119955243.416 5  93471627.484 7  22826736.49247
  24341557.266 4                 127915693.758 4  99674594.04645  24341566.57445
  21318152.063 6  21318156.785 8 112027633.231 6  87294275.641 8  21318156.93046
  20729972.625 7  20729976.641 8 108936732.029 7  84885811.306 8  20729977.35547
  24442377.719 3  24442392.332 7 128445566.36513 100087484.05017  24442392.42246
  21620909.219 6  21620917.012 8 113618649.242 6  88534036.022 8  21620917.52048
  23593218.398 6  23593227.691 8 123983225.707 6  96610346.798 8  23593228.20747
  22030675.195 2                 117559863.592 2                
  19310645.453 7  19310652.336 7 103371409.227 7  80399996.531 7  19310651.285 7
  20719223.891 7  20719228.324 7 110950534.482 7  86294902.354 7  20719228.352 7
  21278911.047 7  21278916.461 7 113867768.841 7  88563822.622 7  21278916.398 6
  19477620.406 7  19477625.066 7 103972859.013 7  80867859.871 7  19477624.555 7
  22025252.859 5                 117820252.848 5                
 23  9 22 16 28  0.0000000  0 15G08G10G15G16G18G23G24G27G32R06R07R08
                                R21R22R23
  24495307.867 3  24495318.023 8 128723724.363 3 100304229.604 8  24495317.89546
  21088917.984 7  21088924.488 8 110823026.866 7  86355638.281 8  21088925.54748
  22830248.539 6  22830255.281 7 119973738.548 6  93486039.218 7  22830255.99247
  24343407.805 4                 127925416.890 4  99682170.50545  24343417.17645
  21316794.703 7  21316799.488 8 112020499.829 7  87288717.127 8  21316799.77746
  20728247.141 6  20728251.961 8 108927665.837 6  84878746.725 8  20728252.32446
  24432174.195 3  24432188.094 7 128391942.648 3 100045699.394 7  24432187.46146
  21611740.500 6  21611747.879 8 113570464.671 6  88496489.609 8  21611748.14548
  23578481.297 6  23578490.227 8 123905779.757 6  96549999.339 8  23578490.78147
  22036247.227 1                 117589605.820 1                
  19307516.945 8  19307522.574 7 103354658.990 8  80386968.550 7  19307521.590 7
  20706023.523 7  20706027.609 7 110879846.949 7  86239923.186 7  20706028.176 7
  21281244.773 7  21281251.129 7 113880263.046 7  88573540.305 7  21281251.773 7
  19471323.906 7  19471328.117 7 103939244.829 7  80841715.505 7  19471327.543 7
  22010668.172 5                 117742224.160 5                
 23  9 22 16 28 15.0000000  0 15G08G10G15G16G18G23G24G27G32R06R07R08
                                R21R22R23
  24481612.172 4  24481623.242 7 128651756.647 4 100248150.813 7  24481622.73846
  21081504.133 7  21081511.352 8 110784065.878 7  86325279.075 8  21081511.74649
  22833786.266 6  22833793.316 7 119992331.060 6  93500526.874 7  22833793.96547
  24345269.680 5                 127935199.764 5  99689793.41745  24345278.71145
  21315451.164 6  21315455.633 8 112013439.548 6  87283215.595 8  21315456.34046
  20726534.516 6  20726539.125 8 108918667.639 6  84871735.131 8  20726539.88347
  24421985.484 3  24421998.613 7 128338401.888 3 100003979.359 7  24421999.05946
  21602596.461 6  21602604.137 8 113522413.210 6  88459046.913 8  21602604.57048
  23563751.078 6  23563760.441 8 123828373.403 6  96489682.755 8  23563760.72347
  22041833.336 1                 117619409.432 1                
  19304421.422 7  19304425.867 7 103338085.441 7  80374078.003 7  19304425.250 7
  20692848.156 7  20692853.117 7 110809291.978 7  86185047.118 7  20692852.840 7
  21283601.094 7  21283606.695 7 113892867.613 7  88583343.806 7  21283607.102 7
  19465050.625 8  19465054.777 7 103905757.190 8  80815669.566 7  19465054.664 7
  21996087.008 5                 117664219.407 5                
 23  9 22 16 28 30.0000000  0 15G08G10G15G16G18G23G24G27G32R06R07R08
                                R21R22R23
  24467928.758 3  24467939.980 7 128579849.552 3 100192119.299 7  24467939.77747
  21074103.789 7  21074110.563 8 110745177.800 7  86294976.680 8  21074111.74649
  22837343.359 6  22837349.918 7 120011018.240 6  93515088.273 7  22837350.84047
  24347142.250 5                 127945039.619 5  99697460.77145  24347151.12945
  21314121.055 6  21314126.422 8 112006450.047 6  87277769.213 8  21314126.87546
  20724834.867 7  20724839.785 8 108909734.864 7  84864774.516 8  20724839.97347
  24411812.633 4  24411825.945 7 128284941.977 4  99962322.334 7  24411826.21546
  21593477.695 6  21593485.141 8 113474492.639 6  88421706.207 8  21593485.16048
  23549028.422 6  23549037.801 8 123751004.663 6  96429395.474 8  23549038.38347
  22047429.883 1                 117649271.428 1                
  19301357.742 8  19301362.453 7 103321685.843 8  80361322.749 7  19301362.184 7
  20679695.703 7  20679701.480 7 110738867.436 7  86130272.507 7  20679701.387 7
  21285976.695 7  21285981.250 7 113905579.875 7  88593231.087 7  21285982.715 7
  19458800.047 8  19458804.395 7 103872394.092 8  80789720.489 7  19458804.102 7
  21981507.703 6                 117586236.567 6                
 23  9 22 16 28 45.0000000  0 15G08G10G15G16G18G23G24G27G32R06R07R08
                                R21R22R23
  24454256.758 4  24454267.574 7 128508001.565 4 100136133.813 7  24454267.30546
  21066717.555 7  21066723.852 8 110706360.830 7  86264729.688 8  21066725.00448
  22840916.430 6  22840922.746 7 120029798.018 6  93529721.838 7  22840924.16047
  24349025.711 4                 127954934.436 4  99705171.05445  24349034.32845
  21312804.164 6  21312809.117 8 111999529.821 6  87272376.811 8  21312809.75846
  20723147.203 6  20723151.621 8 108900865.763 6  84857863.513 8  20723152.10947
  24401655.008 3  24401668.578 7 128231561.820 3  99920727.447 7  24401668.50046
  21584383.023 6  21584391.273 8 113426701.634 6  88384466.472 8  21584391.02348
  23534311.992 6  23534321.090 8 123673672.237 6  96369136.486 8  23534321.88747
  22053037.133 1                 117679189.686 1                
  19298326.531 7  19298330.977 7 103305458.494 7  80348701.470 7  19298330.586 7
  20666568.352 6  20666574.070 7 110668571.729 6  86075598.104 7  20666574.074 7
  21288371.711 7  21288377.727 7 113918398.257 7  88603200.914 7  21288377.898 7
  19452573.172 7  19452576.762 8 103839154.055 7  80763867.099 8  19452576.977 7
  21966933.891 5                 117508274.340 5                
 23  9 22 16 29  0.0000000  0 15G08G10G15G16G18G23G24G27G32R06R07R08
                                R21R22R23
  24440596.094 4  24440606.754 7 128436214.694 4 100080195.925 7  24440606.57846
  21059344.328 7  21059351.332 8 110667616.734 7  86234539.490 8  21059352.24248
  22844507.969 6  22844515.480 7 120048672.104 6  93544428.847 7  22844515.93447
  24350918.523 5                 127964885.426 5  99712924.94545  24350927.68445
  21311500.727 6  21311505.949 8 111992680.629 6  87267039.758 8  21311506.06346
  20721472.258 7  20721476.430 8 108892061.861 7  84851003.315 8  20721477.43447
  24391511.938 3  24391526.180 7 128178263.380 3  99879196.246 7  24391526.31646
  21575314.047 6  21575321.512 8 113379042.123 6  88347329.202 8  21575321.66848
  23519603.664 6  23519613.098 8 123596378.149 6  96308907.360 8  23519613.39547
  22058653.359 1                 117709165.856 1                
  19295327.406 7  19295332.254 7 103289404.627 7  80336215.106 7  19295331.668 7
  20653466.516 7  20653470.492 7 110598406.923 7  86021025.493 7  20653471.117 7
  21290787.227 7  21290793.273 7 113931324.300 7  88613254.441 7  21290793.801 7
  19446369.602 7  19446374.324 8 103806039.000 7  80738110.952 8  19446374.008 7
  21952363.578 5                 117430334.719 5                
 23  9 22 16 29 15.0000000  0 15G08G10G15G16G18G23G24G27G32R06R07R08
                                R21R22R23
  24426947.969 4  24426957.883 7 128364490.832 4 100024307.146 7  24426957.46546
  21051985.867 7  21051992.734 8 110628946.780 7  86204407.064 8  21051993.23849
  22848118.016 5  22848125.383 7 120067641.175 5  93559209.901 7  22848126.17647
  24352823.844 4                 127974893.785 4  99720723.60745  24352832.44945
  21310210.930 6  21310215.914 8 111985903.791 6  87261759.092 8  21310216.57846
  20719809.242 7  20719813.723 8 108883324.300 7  84844194.818 8  20719813.99647
  24381384.578 3  24381398.398 7 128125048.368 3  99837730.068 7  24381399.23446
  21566269.852 6  21566277.621 8 113331515.563 6  88310295.528 8  21566277.61748
  23504902.539 6  23504912.563 8 123519124.030 6  96248709.387 8  23504912.23447
  22064282.914 1                 117739200.514 1                
  19292360.648 7  19292365.418 7 103273525.571 7  80323864.724 7  19292365.621 7
  20640387.813 7  20640392.738 7 110528374.641 7  85966555.976 7  20640393.340 7
  21293223.188 7  21293229.152 7 113944359.195 7  88623392.658 7  21293229.676 7
  19440189.500 7  19440193.453 7 103773050.560 7  80712453.266 7  19440193.262 7
  21937797.727 5                 117352419.475 5                
 23  9 22 16 29 30.0000000  0 15G08G10G15G16G18G23G24G27G32R06R07R08
                                R21R22R23
  24413311.266 4  24413321.758 7 128292828.862 4  99968466.600 7  24413321.07046
  21044641.375 7  21044647.582 8 110590349.455 7  86174331.228 8  21044648.52749
  22851745.156 6  22851752.590 7 120086703.410 6  93574063.558 7  22851753.13747
  24354737.859 4                 127984957.677 4  99728565.64145  24354747.09845
  21308935.320 6  21308940.422 8 111979198.045 6  87256533.820 8  21308940.79346
  20718158.719 7  20718163.426 8 108874651.573 7  84837436.836 8  20718163.56347
  24371274.789 2  24371288.188 7 128071915.846 2  99796328.160 7  24371288.22346
  21557250.805 6  21557258.492 8 113284120.898 6  88273364.633 8  21557258.74648
  23490209.094 6  23490218.723 8 123441908.848 6  96188541.763 8  23490218.99647
  22069923.086 1                 117769291.798 1                
  19289426.891 7  19289432.734 7 103257819.429 7  80311648.822 7  19289432.203 7
  20627334.992 6  20627340.254 7 110458474.100 6  85912188.911 7  20627339.727 7
  21295679.797 7  21295685.246 7 113957501.654 7  88633614.546 7  21295686.004 6
  19434033.773 7  19434038.070 7 103740187.662 7  80686893.233 7  19434037.352 7
  21923236.727 5                 117274527.604 5                
 23  9 22 16 29 45.0000000  0 15G08G10G15G16G18G23G24G27G32R06R07R08
                                R21R22R23
  24399685.938 4  24399697.496 7 128221230.107 4  99912675.346 7  24399696.09846
  21037310.305 7  21037316.840 8 110551825.495 7  86144312.565 8  21037318.08648
  22855391.891 6  22855397.816 7 120105859.513 6  93588990.344 7  22855398.89547
  24356664.398 4                 127995077.625 4  99736451.13645  24356672.93445
  21307672.977 6  21307677.891 8 111972564.361 6  87251364.704 8  21307678.53146
  20716521.211 7  20716526.313 8 108866044.441 7  84830729.965 8  20716526.73046
  24361179.484 2  24361193.559 7 128018867.085 2  99754991.544 7  24361193.21946
  21548257.188 6  21548265.016 8 113236859.251 6  88236537.371 8  21548265.20748
  23475522.914 6  23475532.945 8 123364733.831 6  96128405.427 8  23475533.30147
  22075570.445 1                 117799440.436 1                
  19286524.977 8  19286530.887 7 103242287.242 8  80299568.217 7  19286529.938 7
  20614305.781 7  20614311.137 7 110388706.224 7  85857925.038 7  20614310.836 7
  21298155.883 7  21298160.508 7 113970752.304 7  88643920.579 7  21298161.504 6
  19427901.211 7  19427903.695 7 103707451.577 7  80661431.833 7  19427904.723 7
  21908681.125 5                 117196660.319 5                
 23  9 22 16 30  0.0000000  0 15G08G10G15G16G18G23G24G27G32R06R07R08
                                R21R22R23
  24386073.305 3  24386083.367 7 128149694.565 3  99856933.331 7  24386083.48046
  21029993.414 7  21030000.402 8 110513374.976 7  86114351.117 8  21030001.07049
  22859054.141 6  22859061.609 7 120125109.173 6  93603990.051 7  22859061.61347
  24358600.523 3                 128005253.352 3  99744380.28545  24358609.72745
  21306424.391 6  21306429.117 8 111966002.822 6  87246251.803 8  21306429.58646
  20714895.586 6  20714900.516 8 108857502.771 6  84824074.093 8  20714901.08247
  24351100.781 3  24351114.914 7 127965902.438 3  99713720.452 7  24351114.52346
  21539289.133 6  21539296.828 8 113189730.863 6  88199813.952 8  21539297.00048
  23460844.445 5  23460855.324 8 123287599.372 5  96068300.689 8  23460854.82447
  22081232.555 1                 117829645.670 1                
  19283655.664 7  19283660.727 7 103226928.468 7  80287622.490 7  19283660.926 7
  20601302.766 6  20601308.047 7 110319071.356 6  85803764.609 7  20601307.207 7
  21300652.445 7  21300657.492 7 113984111.217 7  88654310.797 7  21300658.133 7
  19421791.938 7  19421796.230 7 103674842.433 7  80636069.169 7  19421795.531 7
  21894128.992 5                 117118818.215 5                
 23  9 22 16 30 15.0000000  0 15G08G10G15G16G18G23G24G27G32R06R07R08
                                R21R22R23
  24372472.703 4  24372482.441 7 128078220.584 4  99801239.283 7  24372482.67646
  21022690.375 7  21022696.477 8 110474995.371 7  86084444.937 8  21022697.62548
  22862734.828 6  22862742.266 7 120144449.601 6  93619060.474 7  22862742.17647
  24360547.430 3                 128015481.993 3  99752350.55045  24360555.91845
  21305189.070 6  21305193.789 8 111959510.990 6  87241193.224 8  21305194.09846
  20713281.469 6  20713286.688 8 108849023.871 6  84817467.148 8  20713287.24646
  24341038.133 3  24341050.688 7 127913019.880 3  99672513.322 7  24341050.90646
  21530346.094 6  21530354.047 8 113142733.437 6  88163192.585 8  21530354.00048
  23446173.203 6  23446184.086 8 123210503.261 6  96008225.833 8  23446183.79347
  22086903.477 1                 117859904.795 1                
  19280818.516 7  19280824.719 7 103211740.514 7  80275809.636 7  19280823.738 7
  20588322.063 7  20588327.664 7 110249567.322 7  85749705.955 7  20588327.926 7
  21303168.797 7  21303174.820 7 113997575.677 7  88664783.106 7  21303175.113 7
  19415706.344 7  19415710.516 7 103642358.182 7  80610803.644 7  19415710.371 7
  21879581.313 5                 117040998.868 5                
 23  9 22 16 30 30.0000000  0 15G08G10G15G16G18G23G24G27G32R06R07R08
                                R21R22R23
  24358882.547 2  24358893.609 7 128006808.502 2  99745593.448 7  24358893.19946
  21015400.391 7  21015406.766 8 110436686.979 7  86054594.248 8  21015407.78549
  22866432.625 5  22866438.508 7 120163880.696 5  93634201.554 7  22866439.39547
  24362504.406 4                 128025763.276 4  99760361.93845  24362512.53145
  21303966.578 6  21303971.773 8 111953089.231 6  87236189.242 8  21303972.36346
  20711680.297 7  20711685.469 8 108840607.951 7  84810909.266 8  20711685.90647
  24330990.555 3  24331003.281 7 127860220.052 3  99631370.671 7  24331003.81346
  21521427.203 6  21521435.348 8 113095867.549 6  88126673.717 8  21521435.59448
  23431510.609 6  23431519.863 8 123133446.157 6  95948181.389 8  23431520.15247
  22092583.109 1                 117890217.378 1                
  19278013.266 7  19278018.711 7 103196723.539 7  80264129.750 7  19278018.191 7
  20575367.500 7  20575372.879 7 110180194.425 7  85695749.270 7  20575372.922 7
  21305704.180 7  21305711.059 7 114011145.977 7  88675337.757 7  21305710.879 7
  19409644.547 7  19409648.445 7 103609999.124 7  80585635.482 7  19409648.754 7
  21865037.094 5                 116963202.945 5                
 23  9 22 16 30 45.0000000  0 15G08G10G15G16G18G23G24G27G32R06R07R08
                                R21R22R23
  24345305.375 3  24345316.270 7 127935458.054 3  99689995.684 7  24345315.89546
  21008124.102 7  21008130.426 8 110398448.794 7  86024798.255 8  21008131.39549
  22870146.398 6  22870152.848 7 120183401.150 6  93649412.271 7  22870153.55947
  24364470.305 3                 128036096.188 3  99768413.44345  24364478.40645
  21302757.969 6  21302762.703 8 111946736.726 6  87231239.219 8  21302763.42246
  20710090.945 7  20710096.004 8 108832253.916 7  84804399.604 8  20710096.57847
  24320958.977 2  24320971.348 7 127807502.416 2  99590292.066 7  24320972.07846
  21512533.867 6  21512541.836 8 113049132.503 6  88090256.803 8  21512541.98448
  23416853.508 5  23416863.820 8 123056427.507 5  95888166.896 8  23416863.55947
  22098274.094 1                 117920582.494 1                
  19275239.711 7  19275244.570 7 103181876.181 7  80252581.796 7  19275244.188 7
  20562437.414 6  20562441.969 7 110110952.502 6  85641894.465 7  20562441.844 7
  21308260.703 7  21308266.418 7 114024821.087 7  88685973.891 7  21308266.473 6
  19403606.367 8  19403610.293 8 103577764.939 8  80560564.442 8  19403610.363 7
  21850498.391 6                 116885429.942 6                
 23  9 22 16 31  0.0000000  0 15G08G10G15G16G18G23G24G27G32R06R07R08
                                R21R22R23
  24331739.602 3  24331751.070 7 127864171.866 3  99634447.981 7  24331750.92646
  21000861.328 7  21000867.555 8 110360283.483 7  85995059.058 8  21000868.28549
  22873877.992 5  22873886.012 7 120203013.356 5  93664694.484 7  22873885.90247
  24366447.133 4                 128046482.913 4  99776506.94545  24366456.17245
  21301562.695 6  21301567.828 8 111940456.207 6  87226345.296 8  21301568.09446
  20708513.328 7  20708518.660 8 108823964.283 7  84797940.137 8  20708519.26647
  24310941.844 3  24310955.531 7 127754870.015 3  99549279.899 7  24310955.99647
  21503666.258 6  21503673.785 8 113002531.192 6  88053944.106 8  21503674.09448
  23402205.555 5  23402215.934 8 122979450.293 5  95828184.699 8  23402215.81347
  22103974.359 1                 117951002.07811                
  19272499.000 7  19272503.832 7 103167200.834 7  80241167.632 7  19272503.641 7
  20549531.820 7  20549537.199 7 110041844.415 7  85588143.751 7  20549536.422 7
  21310834.711 7  21310840.242 7 114038603.744 7  88696693.708 7  21310841.004 6
  19397591.773 7  19397595.254 7 103545658.494 7  80535592.776 7  19397595.945 7
  21835965.867 6                 116807683.104 6                
 23  9 22 16 31 15.0000000  0 15G08G10G15G16G18G23G24G27G32R06R07R08
                                R21R22R23
  24318187.445 3  24318198.285 7 127792950.329 3  99578950.627 7  24318197.93846
  20993612.039 7  20993619.031 8 110322190.734 7  85965376.395 8  20993619.82848
  22877628.461 6  22877635.422 7 120222716.816 6  93680047.771 7  22877635.89847
  24368433.414 4                 128056922.951 4  99784641.96745  24368442.71545
  21300381.469 6  21300386.039 8 111934247.550 6  87221507.366 8  21300386.79746
  20706947.875 7  20706952.957 8 108815738.763 7  84791530.618 8  20706953.25047
  24300943.781 3  24300955.996 7 127702323.168 3  99508334.399 7  24300956.32046
  21494823.289 6  21494831.738 8 112956063.688 6  88017735.659 8  21494831.79348
  23387565.406 6  23387575.816 8 122902514.706 6  95768234.939 8  23387575.30947
  22109686.500 1                 117981475.655 1                
  19269789.219 7  19269793.703 7 103152697.521 7  80229887.270 7  19269793.910 7
  20536651.844 7  20536656.645 7 109972870.513 7  85534497.406 7  20536656.102 7
  21313430.961 7  21313436.156 7 114052493.496 7  88707496.791 7  21313437.387 6
  19391601.227 8  19391604.219 8 103513679.805 8  80510720.450 8  19391604.996 7
  21821435.766 6                 116729962.665 6                
 23  9 22 16 31 30.0000000  0 15G08G10G15G16G18G23G24G27G32R06R07R08
                                R21R22R23
  24304646.891 4  24304657.949 7 127721794.613 4  99523504.608 7  24304657.41446
  20986377.641 7  20986384.398 8 110284171.768 7  85935751.235 8  20986384.99648
  22881394.055 5  22881402.234 7 120242512.235 5  93695472.725 7  22881402.70747
  24370430.289 4                 128067416.941 4  99792819.03045  24370439.51245
  21299214.156 6  21299219.242 8 111928111.885 6  87216726.306 8  21299219.61346
  20705395.117 7  20705399.555 8 108807578.234 7  84785171.748 8  20705400.50847
  24290961.453 4  24290973.613 7 127649863.161 4  99467456.544 7  24290973.55546
  21486007.289 6  21486014.805 8 112909731.240 6  87981632.459 8  21486014.87948
  23372933.094 6  23372943.969 8 122825622.098 6  95708318.669 8  23372943.59847
  22115404.180 1                 118012003.764 1                
  19267112.266 7  19267117.629 7 103138366.369 7  80218740.819 7  19267116.426 7
  20523796.063 7  20523800.629 7 109904031.847 7  85480956.256 7  20523800.789 7
  21316047.172 7  21316051.305 6 114066491.363 7  88718383.984 6  21316052.531 6
  19385633.938 7  19385638.406 7 103481830.368 7  80485948.663 7  19385638.410 7
  21806911.984 6                 116652269.818 6                
 23  9 22 16 31 45.0000000  0 15G08G10G15G16G18G23G24G27G32R06R07R08
                                R21R22R23
  24291118.766 4  24291130.594 7 127650706.607 4  99468111.346 7  24291129.53546
  20979156.906 7  20979163.852 8 110246227.575 7  85906184.333 8  20979164.58249
  22885179.648 5  22885187.180 7 120262400.688 5  93710970.168 7  22885187.35947
  24372437.813 4                 128077965.945 4  99801038.99645  24372446.71545
  21298060.539 6  21298066.070 8 111922050.674 6  87212003.270 8  21298066.43046
  20703855.016 6  20703859.523 8 108799483.940 6  84778864.481 8  20703860.29347
  24280995.102 3  24281007.484 7 127597491.920 3  99426647.840 7  24281007.18046
  21477216.188 7  21477224.137 8 112863535.488 7  87945635.764 8  21477224.39148
  23358309.188 6  23358319.441 8 122748774.238 6  95648437.267 8  23358319.44947
  22121138.180 1                 118042587.442 1                
  19264466.945 7  19264472.055 7 103124208.992 7  80207729.507 7  19264471.543 7
  20510966.664 7  20510971.473 7 109835329.988 7  85427521.501 7  20510971.168 7
  21318683.180 7  21318689.762 7 114080598.717 7  88729356.339 7  21318689.699 6
  19379691.867 7  19379696.102 7 103450111.720 7  80461278.604 7  19379696.176 7
  21792393.953 6                 116574606.540 6                
 23  9 22 16 32  0.0000000  0 15G08G10G15G16G18G23G24G27G32R06R07R08
                                R21R22R23
  24277603.578 3  24277615.535 7 127579683.786 3  99412768.870 7  24277614.85946
  20971949.977 7  20971956.934 8 110208355.081 7  85876673.303 8  20971957.86348
  22888980.969 5  22888989.184 7 120282378.917 5  93726537.579 7  22888989.83646
  24374455.406 5                 128088566.712 5  99809299.23145  24374464.55945
  21296920.672 6  21296925.367 8 111916061.072 6  87207336.026 8  21296926.07846
  20702326.820 7  20702331.512 8 108791452.813 7  84772606.440 8  20702331.75046
  24271044.602 3  24271057.688 7 127545206.821 3  99385906.268 7  24271057.80946
  21468450.883 6  21468458.836 8 112817473.715 6  87909743.483 8  21468458.62948
  23343693.906 6  23343703.816 8 122671968.492 6  95588588.666 8  23343703.82047
  22126879.086 1                 118073223.301 1                
  19261854.180 7  19261860.031 7 103110222.296 7  80196850.970 7  19261859.723 7
  20498161.594 7  20498167.254 7 109766762.167 7  85374190.994 7  20498166.594 7
  21321339.602 7  21321345.465 7 114094812.443 7  88740411.410 7  21321345.988 6
  19373774.391 8  19373778.477 7 103418521.159 8  80436708.161 7  19373778.277 7
  21777880.297 6                 116496970.114 6                
 23  9 22 16 32 15.0000000  0 15G08G10G15G16G18G23G24G27G32R06R07R08
                                R21R22R23
  24264101.367 3  24264112.383 7 127508726.733 3  99357477.665 7  24264111.34046
  20964756.867 7  20964763.668 8 110170555.214 7  85847218.858 8  20964764.30948
  22892799.953 5  22892807.512 7 120302447.102 5  93742175.075 7  22892807.57047
  24376482.648 3                 128099219.204 3  99817599.76745  24376492.07845
  21295794.656 6  21295799.324 8 111910143.590 6  87202724.987 8  21295800.36746
  20700810.469 7  20700815.465 8 108783485.210 7  84766397.901 8  20700815.91047
  24261111.961 3  24261125.238 7 127493008.676 3  99345232.464 7  24261125.06346
  21459711.461 6  21459719.074 8 112771546.631 6  87873956.144 8  21459719.73448
  23329085.945 6  23329096.461 8 122595205.752 6  95528773.576 8  23329096.30148
  22132629.023 1                 118103911.313 1                
  19259273.242 7  19259279.648 7 103096406.234 7  80186105.125 7  19259278.848 7
  20485382.906 7  20485387.391 7 109698329.708 7  85320965.772 7  20485387.363 7
  21324015.133 6  21324020.875 7 114109132.914 6  88751549.518 7  21324021.867 6
  19367880.625 8  19367883.875 7 103387059.550 8  80412238.025 7  19367884.602 7
  21763373.047 5                 116419361.617 5                
 23  9 22 16 32 30.0000000  0 15G08G10G15G16G18G23G24G27G32R06R07R08
                                R21R22R23
  24250611.141 4  24250622.238 7 127437835.904 4  99302238.016 7  24250621.65246
  20957577.516 7  20957583.844 8 110132827.484 7  85817820.630 8  20957585.08249
  22896636.461 6  22896644.324 7 120322604.813 6  93757882.313 7  22896644.31347
  24378519.656 5                 128109923.149 5  99825940.49645  24378527.97745
  21294682.617 6  21294687.945 8 111904298.260 6  87198170.157 8  21294687.42246
  20699306.352 7  20699311.254 8 108775580.840 7  84760238.626 8  20699311.99247
  24251194.391 3  24251207.781 7 127440897.818 3  99304626.674 7  24251208.75846
  21450997.508 7  21451004.773 8 112725754.411 7  87838273.901 8  21451005.23448
  23314487.305 6  23314496.996 8 122518486.205 6  95468992.164 8  23314497.39147
  22138391.297 1                 118134650.979 1                
  19256724.391 7  19256729.582 7 103082760.651 7  80175491.901 7  19256729.074 7
  20472629.078 7  20472633.320 7 109630032.364 7  85267845.641 7  20472633.742 7
  21326711.281 6  21326716.719 7 114123560.084 6  88762770.608 7  21326718.066 6
  19362011.000 7  19362015.691 7 103355727.169 7  80387868.403 7  19362015.137 7
  21748868.695 6                 116341781.284 6                
 23  9 22 16 32 45.0000000  0 15G08G10G15G16G18G23G24G27G32R06R07R08
                                R21R22R23
  24237132.750 3  24237144.805 7 127367013.669 3  99247051.837 7  24237145.48446
  20950412.297 7  20950419.160 8 110095173.999 7  85788480.248 8  20950419.83248
  22900489.359 5  22900496.285 7 120342853.500 5  93773660.457 7  22900497.28947
  24380566.500 5                 128120680.244 5  99834322.56845  24380574.79345
  21293584.117 6  21293588.781 8 111898527.025 6  87193673.083 8  21293589.26246
  20697814.055 6  20697819.664 8 108767741.521 6  84754130.051 8  20697820.14547
  24241296.617 3  24241308.859 7 127388876.628 3  99264090.753 7  24241309.32046
  21442309.398 6  21442317.742 8 112680099.126 6  87802698.353 8  21442317.96948
  23299897.016 6  23299906.301 8 122441812.126 6  95409246.174 8  23299906.57048
  22144162.672 1                 118165443.857 1                
  19254207.813 7  19254212.977 7 103069286.987 7  80165012.375 7  19254212.445 7
  20459899.633 7  20459905.301 7 109561872.396 7  85214832.343 7  20459905.070 7
  21329427.891 7  21329433.652 7 114138095.645 7  88774075.995 7  21329434.531 6
  19356166.164 8  19356170.797 7 103324526.137 8  80363600.925 7  19356169.613 7
  21734371.914 5                 116264231.365 5                
 23  9 22 16 33  0.0000000  0 15G08G10G15G16G18G23G24G27G32R06R07R08
                                R21R22R23
  24223669.781 3  24223681.270 7 127296258.543 3  99191917.999 7  24223681.03146
  20943260.930 7  20943267.539 8 110057592.883 7  85759196.267 8  20943268.55549
  22904359.609 5  22904367.801 7 120363191.224 5  93789507.978 7  22904368.41447
  24382623.344 5                 128131488.386 5  99842744.42045  24382631.96145
  21292499.703 6  21292504.895 8 111892828.294 6  87189232.485 8  21292505.51646
  20696334.805 7  20696339.895 8 108759965.442 7  84748070.747 8  20696340.29347
  24231413.570 3  24231426.141 7 127336943.710 3  99223623.581 7  24231426.76246
  21433647.109 6  21433655.297 8 112634579.374 6  87767228.423 8  21433655.38348
  23285314.672 6  23285323.797 8 122365182.216 6  95349534.590 8  23285323.77748
  22149942.008 2                 118196288.026 2                
  19251722.383 7  19251727.262 7 103055983.510 7  80154665.215 7  19251726.527 7
  20447198.492 7  20447203.113 7 109493848.677 7  85161925.031 7  20447202.016 7
  21332164.703 7  21332170.320 7 114152737.904 7  88785464.390 7  21332170.727 6
  19350345.203 8  19350349.051 7 103293454.967 8  80339434.454 7  19350349.258 7
  21719881.305 6                 116186710.631 6                
 23  9 22 16 33 15.0000000  0 15G08G10G15G16G18G23G24G27G32R06R07R08
                                R21R22R23
  24210217.750 3  24210230.078 7 127225570.040 3  99136836.014 7  24210229.21546
  20936122.844 7  20936129.633 8 110020083.447 7  85729968.127 8  20936130.62148
  22908246.578 5  22908254.215 7 120383617.007 5  93805424.126 7  22908254.11747
  24384689.828 5                 128142346.331 5  99851205.14945  24384698.89545
  21291428.617 6  21291434.047 8 111887201.496 6  87184847.952 8  21291433.98046
  20694866.766 7  20694871.543 8 108752251.754 7  84742060.058 8  20694872.03947
  24221548.125 3  24221561.063 8 127285098.839 3  99183225.014 8  24221561.22346
  21425010.898 6  21425018.828 8 112589194.710 6  87731863.749 8  21425018.95348
  23270740.625 6  23270749.938 8 122288596.103 6  95289857.142 8  23270750.20748
  22155731.727 1                 118227182.079 1                
  19249269.188 7  19249273.492 7 103042849.322 7  80144449.728 7  19249273.227 7
  20434520.398 7  20434524.383 7 109425960.626 7  85109123.241 7  20434524.816 7
  21334919.906 7  21334925.828 7 114167486.238 7  88796935.269 7  21334926.352 6
  19344549.164 7  19344553.566 8 103262513.340 7  80315368.742 8  19344553.512 7
  21705394.867 6                 116109218.858 6                
 23  9 22 16 33 30.0000000  0 15G08G10G15G16G18G23G24G27G32R06R07R08
                                R21R22R23
  24196779.805 3  24196790.938 7 127154949.195 3  99081806.774 7  24196790.59046
  20928998.773 7  20929005.891 8 109982646.238 7  85700796.277 8  20929006.99648
  22912150.328 5  22912157.340 7 120404130.945 5  93821408.961 7  22912158.19547
  24386765.055 5                 128153254.303 5  99859704.75045  24386774.61745
  21290372.406 6  21290377.461 8 111881647.164 6  87180519.888 8  21290378.03546
  20693410.727 6  20693415.832 8 108744600.809 6  84736098.268 8  20693416.38746
  24211698.648 3  24211711.969 7 127233342.908 3  99142895.759 7  24211712.53946
  21416400.109 6  21416408.234 8 112543945.817 6  87696604.878 8  21416408.45348
  23256175.086 6  23256185.598 8 122212054.615 6  95230214.460 8  23256185.35547
  22161531.031 2                 118258126.082 2                
  19246846.539 7  19246851.840 7 103029884.499 7  80134365.975 7  19246851.578 7
  20421867.859 7  20421872.430 7 109358209.024 7  85056427.570 7  20421872.359 7
  21337696.516 7  21337701.770 7 114182340.738 7  88808488.718 7  21337702.645 6
  19338777.414 8  19338780.426 7 103231701.911 8  80291404.300 7  19338781.129 7
  21690914.391 6                 116031756.811 6                
 23  9 22 16 33 45.0000000  0 15G08G10G15G16G18G23G24G27G32R06R07R08
                                R21R22R23
  24183353.984 4  24183363.641 7 127084394.188 4  99026828.825 7  24183363.81346
  20921888.023 7  20921894.883 8 109945278.603 7  85671678.631 8  20921895.89149
  22916069.664 5  22916078.609 7 120424730.524 5  93837460.518 7  22916078.16047
  24388850.109 5                 128164209.727 5  99868241.37945  24388859.59045
  21289328.695 6  21289333.219 8 111876163.090 6  87176246.577 8  21289334.18846
  20691966.469 7  20691971.398 8 108737010.196 7  84730183.482 8  20691972.34846
  24201866.031 2  24201880.023 8 127181673.948 2  99102634.268 8  24201880.21146
  21407815.375 7  21407823.016 8 112498830.647 7  87661450.198 8  21407823.44948
  23241618.227 6  23241627.484 8 122135555.832 6  95170605.059 8  23241627.57047
  22167337.570 1                 118289117.418 1                
  19244455.711 7  19244461.492 7 103017086.618 7  80124412.051 7  19244460.754 7
  20409241.641 7  20409245.758 7 109290591.900 7  85003836.499 7  20409245.477 7
  21340491.992 7  21340495.395 7 114197299.073 7  88820122.942 7  21340497.680 6
  19333028.906 8  19333033.199 7 103201018.732 8  80267539.608 7  19333032.805 7
  21676439.469 6                 115954322.458 6                
 23  9 22 16 34  0.0000000  0 15G08G10G15G16G18G23G24G27G32R06R07R08
                                R21R22R23
  24169939.945 3  24169950.875 7 127013906.894 3  98971903.646 7  24169950.82046
  20914790.984 7  20914797.969 8 109907982.821 7  85642616.982 8  20914798.97748
  22920007.406 5  22920014.129 7 120445417.312 5  93853580.021 7  22920014.48847
  24390944.391 5                 128175214.164 5  99876816.22645  24390953.21545
  21288298.938 6  21288303.492 8 111870751.310 6  87172029.578 8  21288304.25446
  20690533.625 6  20690539.027 8 108729481.775 6  84724317.155 8  20690539.66047
  24192050.531 1  24192064.473 7 127130094.290 1  99062442.382 7  24192064.55946
  21399255.719 6  21399263.625 8 112453851.422 6  87626401.450 8  21399263.82448
  23227069.641 6  23227079.047 8 122059102.057 6  95111030.730 8  23227079.04347
  22173155.234 1                 118320157.769 1                
  19242096.477 7  19242101.684 7 103004457.381 7  80114589.306 7  19242102.004 7
  20396639.055 7  20396644.133 7 109223111.255 7  84951351.562 7  20396644.211 7
  21343306.141 6  21343312.297 7 114212363.282 6  88831839.504 7  21343313.289 6
  19327306.031 7  19327309.859 7 103170466.039 7  80243776.397 7  19327309.688 7
  21661968.273 6                 115876918.304 6                
 23  9 22 16 34 15.0000000  0 15G08G10G15G16G18G23G24G27G32R06R07R08
                                R21R22R23
  24156540.211 4  24156550.496 7 126943487.104 4  98917031.045 7  24156550.37946
  20907706.992 7  20907714.203 8 109870757.679 7  85613610.379 8  20907715.01248
  22923960.141 5  22923967.121 7 120466189.699 5  93869766.248 7  22923967.72747
  24393046.836 5                 128186265.922 5  99885427.89545  24393056.36345
  21287282.250 6  21287288.648 8 111865410.786 6  87167868.116 8  21287288.78946
  20689112.727 6  20689118.273 8 108722014.240 6  84718498.274 8  20689118.69147
  24182252.594 2  24182266.250 8 127078603.344 2  99022319.602 8  24182265.89546
  21390721.820 6  21390730.340 8 112409007.147 6  87591457.860 8  21390730.75448
  23212529.047 6  23212538.051 8 121982692.512 6  95051490.853 8  23212538.21148
  22178981.250 1                 118351245.559 1                
  19239768.453 7  19239773.535 7 102991995.399 7  80104896.650 7  19239773.273 7
  20384062.117 7  20384067.043 7 109155766.292 7  84898972.161 7  20384066.328 7
  21346140.898 7  21346147.250 7 114227531.919 7  88843637.286 7  21346147.773 6
  19321606.688 8  19321610.535 7 103140042.955 8  80220114.004 7  19321610.168 8
  21647504.453 5                 115799543.696 5                
 23  9 22 16 34 30.0000000  0 15G08G10G15G16G18G23G24G27G32R06R07R08
                                R21R22R23
  24143152.320 4  24143163.094 7 126873134.170 4  98862210.547 7  24143162.62546
  20900636.820 7  20900643.824 8 109833602.475 7  85584658.271 8  20900644.68048
  22927929.148 5  22927936.891 7 120487046.842 5  93886018.499 7  22927937.07447
  24395159.164 5                 128197364.369 5  99894075.95945  24395168.26645
  21286279.367 6  21286284.547 8 111860140.917 6  87163761.706 8  21286285.63746
  20687703.297 7  20687708.867 8 108714606.831 7  84712726.250 8  20687708.96146
  24172471.289 3  24172484.273 7 127027200.718 3  98982265.643 7  24172484.49246
  21382214.250 6  21382221.855 8 112364297.507 6  87556619.183 8  21382222.19148
  23197997.070 6  23198006.246 8 121906326.933 6  94991985.233 8  23198006.33247
  22184815.938 1                 118382379.398 1                
  19237472.063 7  19237477.086 7 102979699.689 7  80095333.304 7  19237476.586 7
  20371511.234 7  20371516.758 7 109088557.199 7  84846698.440 7  20371516.512 7
  21348995.070 6  21349001.871 7 114242804.478 6  88855515.914 7  21349001.809 7
  19315931.242 8  19315935.066 8 103109749.162 8  80196552.146 8  19315935.051 7
  21633044.344 6                 115722198.326 6                
 23  9 22 16 34 45.0000000  0 15G08G10G15G16G18G23G24G27G32R06R07R08
                                R21R22R23
  24129777.578 4  24129787.758 7 126802850.076 4  98807443.709 7  24129787.64146
  20893580.141 7  20893587.027 8 109796518.416 7  85555761.607 8  20893587.73848
  22931915.594 6  22931922.020 7 120507990.099 6  93902337.813 7  22931922.55147
  24397280.750 5                 128208510.533 5  99902761.24745  24397289.52745
  21285290.484 6  21285296.281 8 111854943.296 6  87159711.600 8  21285296.62546
  20686305.227 6  20686310.793 8 108707260.890 6  84707002.118 8  20686311.19147
  24162706.906 3  24162719.902 7 126975888.370 3  98942282.039 7  24162719.82846
  21373732.195 6  21373740.523 8 112319724.167 6  87521886.706 8  21373740.77748
  23183473.086 6  23183483.008 8 121830007.082 6  94932515.258 8  23183482.93047
  22190660.133 1                 118413560.605 1                
  19235206.164 7  19235211.730 7 102967571.526 7  80085900.271 7  19235211.230 7
  20358986.625 7  20358991.430 7 109021485.369 7  84794531.479 7  20358991.637 7
  21351869.086 7  21351876.086 7 114258182.102 7  88867476.207 7  21351875.906 7
  19310280.445 8  19310284.730 7 103079586.451 8  80173092.267 7  19310283.887 7
  21618591.805 5                 115644884.077 5                
 23  9 22 16 35  0.0000000  0 15G08G10G15G16G18G23G24G27G32R06R07R08
                                R21R22R23
  24116416.180 4  24116426.711 7 126732635.659 4  98752731.143 7  24116426.48046
  20886536.523 7  20886543.578 8 109759506.145 7  85526920.869 8  20886544.62948
  22935916.453 6  22935923.156 7 120529019.490 6  93918724.306 7  22935923.81347
  24399410.930 5                 128219704.729 5  99911483.89745  24399419.21545
  21284315.633 6  21284320.898 8 111849818.580 6  87155718.298 8  21284321.42246
  20684919.078 7  20684924.785 8 108699976.832 7  84701326.206 8  20684924.57447
  24152959.734 3  24152972.520 8 126924667.257 3  98902369.491 8  24152972.86746
  21365276.273 6  21365283.570 8 112275287.896 6  87487261.040 8  21365284.38348
  23168959.313 6  23168968.906 8 121753733.951 6  94873081.687 8  23168968.72747
  22196512.523 1                 118444789.447 1                
  19232971.563 7  19232977.047 7 102955611.499 7  80076598.024 7  19232977.016 7
  20346487.219 7  20346492.875 7 108954551.405 7  84742471.740 7  20346492.121 7
  21354763.180 6  21354769.016 7 114273665.525 6  88879518.836 7  21354769.539 6
  19304654.875 8  19304658.500 8 103049555.594 8  80149734.945 8  19304658.719 7
  21604143.836 5                 115567602.193 5                
 23  9 22 16 35 15.0000000  0 15G08G10G15G16G18G23G24G27G32R06R07R08
                                R21R22R23
  24103067.922 4  24103079.055 7 126662488.789 4  98698071.224 7  24103077.83246
  20879507.008 7  20879513.777 8 109722563.334 7  85498134.268 8  20879514.91449
  22939933.727 6  22939940.754 7 120550132.226 6  93935175.750 7  22939941.40247
  24401549.477 5                 128230944.087 5  99920241.81245  24401558.29345
  21283353.516 6  21283358.129 8 111844764.382 6  87151779.943 8  21283358.75846
  20683544.289 7  20683549.703 8 108692752.119 7  84695696.540 8  20683550.24647
  24143229.625 3  24143243.340 7 126873535.289 3  98862526.426 7  24143243.35946
  21356846.375 6  21356853.426 8 112230986.524 6  87452740.494 8  21356854.20748
  23154453.414 6  23154462.758 8 121677505.378 6  94813682.846 8  23154462.92647
  22202372.008 1                 118476062.871 1                
  19230768.594 7  19230773.234 7 102943816.465 7  80067424.101 7  19230772.969 7
  20334012.789 6  20334017.477 7 108887753.436 6  84690517.784 7  20334018.313 7
  21357675.828 6  21357681.215 7 114289252.027 6  88891641.612 7  21357681.742 7
  19299053.953 8  19299056.094 7 103019654.539 8  80126478.563 7  19299057.375 7
  21589703.211 6                 115490350.470 6                
 23  9 22 16 35 30.0000000  0 15G08G10G15G16G18G23G24G27G32R06R07R08
                                R21R22R23
  24089733.547 4  24089742.758 7 126592411.162 4  98643465.255 7  24089742.64846
  20872489.766 7  20872496.980 8 109685691.066 7  85469402.621 8  20872498.18849
  22943967.383 5  22943974.809 7 120571329.369 5  93951692.938 7  22943975.41847
  24403696.781 5                 128242229.569 5  99929035.64545  24403705.92645
  21282405.453 6  21282410.852 8 111839782.061 6  87147897.595 8  21282410.83246
  20682180.875 6  20682186.457 8 108685587.912 6  84690114.028 8  20682186.81347
  24133517.008 3  24133529.680 7 126822494.119 3  98822754.113 7  24133529.81346
  21348441.758 6  21348449.559 8 112186821.500 6  87418326.188 8  21348449.80548
  23139956.258 6  23139966.094 8 121601323.044 6  94754320.022 8  23139966.08647
  22208242.039 1                 118507381.795 1                
  19228596.313 7  19228601.844 7 102932187.628 7  80058379.448 7  19228600.875 7
  20321564.586 7  20321570.359 7 108821093.035 7  84638670.827 7  20321570.285 7
  21360607.305 6  21360612.898 7 114304942.866 6  88903845.538 7  21360614.012 6
  19293476.609 8  19293480.820 7 102989884.651 8  80103324.214 7  19293480.426 7
  21575267.625 5                 115413130.395 5                
 23  9 22 16 35 45.0000000  0 15G08G10G15G16G18G23G24G27G32R06R07R08
                                R21R22R23
  24076409.813 4  24076421.133 7 126522404.910 4  98588914.884 7  24076421.05546
  20865487.141 7  20865494.461 8 109648891.152 7  85440727.368 8  20865495.65248
  22948018.844 6  22948024.523 7 120592612.308 6  93968276.958 7  22948025.35247
  24405853.742 5                 128253562.450 5  99937866.38145  24405862.03945
  21281471.133 6  21281476.590 8 111834873.440 6  87144072.676 8  21281476.94946
  20680829.797 7  20680835.195 8 108678485.761 7  84684579.871 8  20680834.94947
  24123821.891 3  24123834.371 7 126771545.871 3  98783054.218 7  24123834.52346
  21340063.984 6  21340071.215 8 112142794.817 6  87384019.683 8  21340071.60948
  23125468.891 6  23125478.195 8 121525189.045 6  94694994.863 8  23125478.23047
  22214119.148 1                 118538747.483 1                
  19226455.328 8  19226460.352 7 102920726.544 8  80049465.258 7  19226459.734 7
  20309141.336 7  20309146.820 7 108754571.983 7  84586932.253 7  20309147.402 7
  21363559.273 6  21363565.906 7 114320739.818 6  88916132.011 7  21363566.547 7
  19287924.461 8  19287928.281 7 102960248.055 8  80080273.521 7  19287928.766 7
  21560838.836 5                 115335944.260 5                
 23  9 22 16 36  0.0000000  0 15G08G10G15G16G18G23G24G27G32R06R07R08
                                R21R22R23
  24063103.305 4  24063112.371 7 126452469.399 4  98534419.683 7  24063113.12546
  20858498.063 7  20858505.203 8 109612162.554 7  85412107.682 8  20858506.22749
  22952083.875 5  22952090.348 7 120613979.712 5  93984926.786 7  22952091.37547
  24408018.797 5                 128264941.479 5  99946733.06845  24408027.82045
  21280550.875 6  21280556.926 8 111830037.627 6  87140304.484 8  21280557.30546
  20679489.625 7  20679495.223 8 108671444.607 7  84679093.234 8  20679495.41847
  24114143.320 3  24114156.227 7 126720690.027 3  98743426.293 7  24114157.08246
  21331711.773 7  21331719.961 8 112098905.718 7  87349820.393 8  21331720.16048
  23110990.148 6  23110999.246 8 121449102.715 6  94635706.848 8  23110999.48847
  22220005.141 1                 118570158.732 1                
  19224345.609 7  19224350.387 7 102909431.757 7  80040680.404 7  19224349.887 7
  20296745.656 7  20296750.195 7 108688189.944 7  84535301.802 7  20296750.430 7
  21366531.836 7  21366537.219 7 114336641.621 7  88928500.037 7  21366537.742 7
  19282397.664 8  19282400.137 7 102930744.140 8  80057326.040 7  19282400.801 7
  21546416.188 6                 115258791.434 6                
 23  9 22 16 36 15.0000000  0 15G08G10G15G16G18G23G24G27G32R06R07R08
                                R21R22R23
  24049807.688 4  24049819.094 7 126382606.476 4  98479981.005 7  24049818.55946
  20851522.609 7  20851529.520 8 109575506.465 7  85383544.485 8  20851530.60949
  22956166.055 5  22956173.402 7 120635432.561 5  94001643.218 7  22956174.31647
  24410192.992 5                 128276367.639 5  99955636.54745  24410202.07445
  21279645.227 6  21279650.637 8 111825276.087 6  87136594.169 8  21279651.03146
  20678161.813 6  20678167.465 8 108664465.727 6  84673655.130 8  20678167.43046
  24104484.313 3  24104496.930 7 126669928.318 3  98703871.725 7  24104497.65247
  21323386.578 6  21323394.645 8 112055155.824 6  87315729.567 8  21323394.80948
  23096520.711 6  23096529.988 8 121373065.809 6  94576457.354 8  23096529.69947
  22225900.102 1                 118601616.465 1                
  19222267.156 8  19222271.719 7 102898304.638 8  80032025.978 7  19222271.605 7
  20284375.914 7  20284381.172 7 108621948.439 7  84483780.646 7  20284380.773 7
  21369523.086 6  21369529.688 7 114352649.580 6  88940950.622 7  21369530.094 7
  19276895.578 7  19276898.730 7 102901374.509 7  80034482.988 7  19276899.227 7
  21531999.750 6                 115181673.760 6                
 23  9 22 16 36 30.0000000  0 15G08G10G15G16G18G23G24G27G32R06R07R08
                                R21R22R23
  24036527.039 3  24036538.855 7 126312816.364 3  98425599.074 7  24036538.13346
  20844561.086 7  20844568.680 8 109538923.362 7  85355038.167 8  20844569.39149
  22960264.352 5  22960272.480 7 120656971.023 5  94018426.383 7  22960273.48447
  24412376.789 5                 128287840.830 5  99964576.59445  24412385.33645
  21278752.531 6  21278758.977 8 111820589.182 6  87132942.015 8  21278759.52046
  20676845.742 6  20676850.266 8 108657549.244 6  84668265.641 8  20676851.27047
  24094843.648 4  24094855.750 8 126619261.466 4  98664391.076 8  24094856.24247
  21315087.633 6  21315095.496 8 112011545.631 6  87281747.611 8  21315095.88348
  23082060.594 6  23082070.133 8 121297078.999 6  94517246.888 8  23082069.76247
  22231805.492 1                 118633120.683 1                
  19220219.141 7  19220224.613 7 102887345.357 7  80023502.073 7  19220223.996 7
  20272032.203 7  20272036.652 7 108555848.182 7  84432369.354 7  20272036.500 7
  21372535.227 7  21372541.020 7 114368764.001 7  88953484.007 7  21372541.543 7
  19271418.703 7  19271421.977 7 102872139.754 7  80011744.840 7  19271422.098 7
  21517590.445 6                 115104592.200 6                
 23  9 22 16 36 45.0000000  0 15G08G10G15G16G18G23G24G27G32R06R07R08
                                R21R22R23
  24023260.914 3  24023270.949 7 126243098.813 3  98371273.720 7  24023271.58646
  20837613.227 7  20837620.508 8 109502411.896 7  85326587.676 8  20837621.28149
  22964379.891 5  22964387.117 7 120678593.539 5  94035274.984 7  22964387.91447
  24414568.117 5                 128299359.675 5  99973552.26445  24414576.81645
  21277875.109 6  21277880.754 8 111815975.835 6  87129347.176 8  21277881.49646
  20675541.375 7  20675546.316 8 108650693.871 7  84662923.775 8  20675547.17247
  24085219.984 3  24085232.402 7 126568688.674 3  98624983.716 7  24085232.98446
  21306815.547 6  21306823.219 8 111968074.194 6  87247873.769 8  21306823.22348
  23067610.477 6  23067619.047 8 121221141.446 6  94458074.811 8  23067619.32047
  22237715.031 1                 118664669.660 1                
  19218203.219 8  19218208.324 7 102876552.126 8  80015107.328 7  19218207.355 7
  20259715.188 7  20259719.043 7 108489887.982 7  84381066.990 7  20259719.293 7
  21375565.039 6  21375571.973 7 114384983.591 6  88966099.189 7  21375572.262 7
  19265967.781 8  19265970.805 7 102843038.991 8  79989110.911 7  19265971.438 7
  21503186.023 5                 115027545.778 5                
 23  9 22 16 37  0.0000000  0 15G08G10G15G16G18G23G24G27G32R06R07R08
                                R21R22R23
  24010006.117 2  24010017.801 7 126173454.563 2  98317005.442 7  24010017.56346
  20830678.883 7  20830686.555 8 109465972.456 7  85298193.303 8  20830687.29749
  22968511.305 5  22968517.602 7 120700300.349 5  94052189.288 7  22968518.60547
  24416769.391 5                 128310924.466 5  99982563.70345  24416778.27045
  21277011.000 6  21277017.406 8 111811436.771 6  87125810.229 8  21277017.91446
  20674248.523 6  20674253.777 8 108643900.144 6  84657629.944 8  20674254.47747
  24075613.758 4  24075626.000 8 126518210.966 4  98585650.462 8  24075626.80947
  21298569.664 7  21298577.375 8 111924742.407 7  87214108.729 8  21298577.72348
  23053169.586 6  23053178.266 8 121145254.141 6  94398941.874 8  23053178.32447
  22243637.430 1                 118696263.702 1                
  19216217.484 7  19216222.531 7 102865925.366 7  80006842.061 7  19216222.031 7
  20247422.672 7  20247428.891 7 108424068.845 7  84329874.353 7  20247428.285 7
  21378615.508 6  21378622.527 7 114401308.842 6  88978796.555 7  21378623.168 7
  19260541.273 7  19260544.781 7 102814073.060 7  79966581.855 7  19260544.633 7
  21488791.188 6                 114950535.638 6                
 23  9 22 16 37 15.0000000  0 15G08G10G15G16G18G23G24G27G32R06R07R08
                                R21R22R23
  23996768.352 3  23996779.523 7 126103880.376 3  98262791.796 7  23996778.73446
  20823758.070 7  20823765.180 8 109429601.956 7  85269852.656 8  20823766.11748
  22972657.133 6  22972664.008 7 120722087.720 6  94069166.384 7  22972664.42647
  24418978.484 5                 128322531.249 5  99991607.85445  24418987.18045
  21276161.289 6  21276166.719 8 111806968.554 6  87122328.497 8  21276167.38346
  20672966.914 7  20672972.223 8 108637164.391 7  84652381.286 8  20672972.55947
  24066025.375 3  24066037.953 7 126467825.188 3  98546388.816 7  24066038.38346
  21290349.625 6  21290357.477 8 111881546.898 6  87180449.897 8  21290357.75048
  23038737.609 6  23038746.527 8 121069413.941 6  94339845.651 8  23038746.77747
  22249565.023 1                 118727898.854 1                
  19214262.383 7  19214267.781 7 102855461.591 7  79998703.557 7  19214267.516 7
  20235157.289 7  20235162.605 7 108358387.489 7  84278788.876 7  20235162.824 7
  21381685.711 6  21381692.406 7 114417736.112 6  88991573.267 7  21381693.164 6
  19255138.773 7  19255142.434 7 102785238.752 7  79944155.164 7  19255142.930 7
  21474401.273 6                 114873558.551 6                
 23  9 22 16 37 30.0000000  0 15G08G10G15G16G18G23G24G27G32R06R07R08
                                R21R22R23
  23983541.641 3  23983552.922 7 126034376.481 3  98208632.925 7  23983552.45746
  20816850.156 7  20816856.910 8 109393299.986 7  85241565.400 8  20816857.71149
  22976817.844 5  22976824.988 7 120743955.119 5  94086205.850 7  22976825.58247
  24421194.680 5                 128334179.729 5 100000684.57745  24421204.04345
  21275323.820 6  21275329.395 8 111802571.087 6  87118901.871 8  21275330.35546
  20671695.453 6  20671701.141 8 108630486.378 6  84647177.622 8  20671701.46547
  24056454.688 3  24056467.773 7 126417531.604 3  98507199.014 7  24056468.02046
  21282155.727 6  21282163.668 8 111838487.815 6  87146897.370 8  21282164.21548
  23024314.672 6  23024323.941 8 120993621.069 6  94280786.302 8  23024323.62547
  22255502.578 1                 118759574.571 1                
  19212338.578 7  19212343.207 7 102845159.959 7  79990691.156 7  19212343.293 7
  20222917.969 7  20222922.996 7 108292844.299 7  84227810.853 7  20222922.426 7
  21384775.344 6  21384781.699 7 114434265.210 6  89004429.173 7  21384781.988 7
  19249762.313 7  19249766.387 7 102756536.112 7  79921830.897 7  19249766.066 7
  21460016.109 6                 114796614.833 6                
 23  9 22 16 37 45.0000000  0 15G08G10G15G16G18G23G24G27G32R06R07R08
                                R21R22R23
  23970329.383 4  23970340.414 7 125964944.516 4  98154530.046 7  23970339.96546
  20809955.273 7  20809962.531 8 109357067.449 7  85213332.251 8  20809963.07449
  22980994.195 5  22981001.004 7 120765903.042 5  94103308.067 7  22981001.82847
  24423419.625 5                 128345870.380 5 100009794.10445  24423427.97745
  21274501.008 6  21274507.172 8 111798245.408 6  87115531.191 8  21274507.63746
  20670436.180 6  20670440.488 8 108623866.905 6  84642019.563 8  20670441.32847
  24046901.805 3  24046914.441 7 126367331.546 3  98468082.089 7  24046914.83646
  21273988.242 7  21273995.781 8 111795566.243 7  87113451.998 8  21273996.44948
  23009900.320 6  23009910.246 8 120917876.723 6  94221764.775 8  23009910.02047
  22261446.281 1                 118791291.352 1                
  19210445.063 7  19210449.801 7 102835021.391 7  79982805.599 7  19210449.531 7
  20210703.898 7  20210710.281 7 108227439.936 7  84176940.811 7  20210709.184 7
  21387882.711 6  21387889.570 7 114450896.937 6  89017364.916 7  21387890.449 7
  19244410.461 8  19244415.137 7 102727966.396 8  79899609.997 7  19244414.418 7
  21445640.055 6                 114719705.860 6                
 23  9 22 16 38  0.0000000  0 15G08G10G15G16G18G23G24G27G32R06R07R08
                                R21R22R23
  23957131.172 5  23957143.082 7 125895585.591 5  98100484.115 7  23957142.09846
  20803073.602 7  20803081.066 8 109320905.394 7  85185154.026 8  20803081.63349
  22985186.313 5  22985194.035 7 120787932.407 5  94120473.734 7  22985194.57447
  24425652.328 5                 128357603.920 5 100018937.08245  24425660.90645
  21273691.891 6  21273697.875 8 111793992.692 6  87112217.352 8  21273698.46146
  20669188.180 6  20669192.734 8 108617306.896 6  84636907.847 8  20669193.82047
  24037368.188 4  24037380.188 7 126317226.519 4  98429039.212 7  24037380.10546
  21265846.313 6  21265854.305 8 111752783.520 6  87080114.809 8  21265854.97748
  22995496.289 6  22995505.496 8 120842182.439 6  94162782.260 8  22995505.60947
  22267397.953 1                 118823050.026 1                
  19208581.594 8  19208587.125 7 102825046.857 8  79975047.618 7  19208586.152 7
  20198516.148 7  20198521.535 7 108162176.374 7  84126180.284 7  20198521.645 7
  21391010.594 6  21391018.133 7 114467632.326 6  89030381.270 7  21391017.836 7
  19239083.359 7  19239086.023 7 102699530.984 7  79877493.571 7  19239086.707 7
  21431269.094 6                 114642833.043 6                
 23  9 22 16 38 15.0000000  0 15G08G10G15G16G18G23G24G27G32R06R07R08
                                R21R22R23
  23943946.211 4  23943957.250 7 125826298.916 4  98046494.505 7  23943956.76246
  20796205.727 7  20796213.059 8 109284812.854 7  85157029.969 8  20796213.60249
  22989393.727 6  22989401.250 7 120810041.946 6  94137701.866 7  22989401.93047
  24427893.289 4                 128369379.044 4 100028112.44445  24427902.11745
  21272896.688 6  21272902.805 8 111789812.017 6  87108959.653 8  21272902.97346
  20667950.594 6  20667956.055 8 108610805.284 6  84631841.639 8  20667956.08646
  24027851.289 3  24027863.488 7 126267215.880 3  98390069.897 7  24027863.72746
  21257731.836 6  21257740.199 8 111710138.848 6  87046885.190 8  21257739.92648
  22981101.453 6  22981110.742 8 120766537.502 6  94103838.181 8  22981110.77047
  22273357.891 1                 118854849.104 1                
  19206748.109 7  19206753.016 7 102815234.767 7  79967415.973 7  19206753.219 7
  20186355.266 7  20186360.711 7 108097052.563 7  84075528.448 7  20186360.410 7
  21394156.875 6  21394164.727 7 114484470.183 6  89043477.329 7  21394164.902 7
  19233781.375 8  19233784.902 7 102671229.163 8  79855481.027 7  19233785.293 7
  21416904.820 6                 114565995.855 6                
 23  9 22 16 38 30.0000000  0 15G08G10G15G16G18G23G24G27G32R06R07R08
                                R21R22R23
  23930775.859 5  23930786.145 7 125757085.003 5  97992561.544 7  23930785.75046
  20789350.414 7  20789357.555 8 109248789.350 7  85128959.704 8  20789358.79749
  22993616.633 6  22993623.668 7 120832231.020 6  94154991.973 7  22993624.32047
  24430141.992 4                 128381195.058 4 100037319.67445  24430150.62945
  21272114.547 6  21272120.254 8 111785703.148 6  87105757.900 8  21272121.26646
  20666724.609 6  20666729.586 8 108604361.608 6  84626820.573 8  20666730.39546
  24018352.016 3  24018364.223 7 126217299.665 3  98351174.146 7  24018364.94946
  21249643.172 6  21249650.965 8 111667632.153 6  87013763.099 8  21249650.95748
  22966716.273 6  22966725.098 8 120690942.026 6  94044932.664 8  22966725.30947
  22279323.836 1                 118886687.766 1                
  19204945.664 7  19204950.477 7 102805584.753 7  79959910.397 7  19204950.211 7
  20174219.508 7  20174224.285 7 108032068.479 7  84024985.286 7  20174224.992 7
  21397322.602 6  21397329.969 7 114501410.224 6  89056652.855 7  21397330.027 7
  19228504.922 7  19228508.867 7 102643060.921 7  79833572.390 7  19228508.102 7
  21402548.102 6                 114489194.506 6                
 23  9 22 16 38 45.0000000  0 15G08G10G15G16G18G23G24G27G32R06R07R08
                                R21R22R23
  23917619.422 5  23917629.094 7 125687943.841 5  97938685.309 7  23917628.69946
  20782508.672 7  20782515.559 8 109212834.823 7  85100943.194 8  20782516.76249
  22997853.828 5  22997861.707 7 120854499.334 5  94172343.878 7  22997861.35947
  24432398.398 5                 128393051.334 5 100046558.29045  24432407.65645
  21271346.328 6  21271352.656 8 111781666.142 6  87102612.153 8  21271353.43846
  20665509.383 6  20665514.469 8 108597975.733 6  84621844.554 8  20665515.01247
  24008870.594 3  24008883.754 7 126167478.314 3  98312352.303 7  24008884.54346
  21241580.961 6  21241587.992 8 111625263.615 6  86980748.660 8  21241588.39148
  22952339.727 6  22952349.859 8 120615396.335 6  93986065.932 8  22952349.65247
  22285298.016 1                 118918565.623 1                
  19203173.250 7  19203178.012 7 102796096.237 7  79952530.429 7  19203178.098 7
  20162110.258 7  20162114.945 7 107967224.506 7  83974551.104 7  20162115.641 7
  21400507.117 6  21400515.680 7 114518452.339 6  89069907.778 7  21400515.387 7
  19223253.555 8  19223257.125 7 102615026.397 8  79811767.748 7  19223256.598 7
  21388197.578 6                 114412429.461 6                
 23  9 22 16 39  0.0000000  0 15G08G10G15G16G18G23G24G27G32R06R07R08
                                R21R22R23
  23904475.969 5  23904486.273 7 125618876.448 5  97884866.532 7  23904485.60246
  20775679.906 7  20775687.188 8 109176949.908 7  85072980.919 8  20775688.07849
  23002106.805 5  23002113.324 7 120876846.889 5  94189757.429 7  23002114.21147
  24434662.227 4                 128404948.562 4 100055828.75145  24434671.22345
  21270591.883 6  21270598.301 8 111777701.704 6  87099522.941 8  21270598.67246
  20664305.109 6  20664310.457 8 108591648.152 6  84616913.953 8  20664310.51247
  23999408.578 3  23999422.121 8 126117752.774 3  98273605.140 8  23999422.23446
  21233544.414 6  21233552.434 8 111583034.031 6  86947842.488 8  21233552.49248
  22937974.180 6  22937983.199 8 120539901.327 6  93927238.698 8  22937983.11347
  22291279.047 1                 118950483.096 1                
  19201430.711 7  19201436.090 7 102786769.907 7  79945276.604 7  19201435.473 7
  20150027.969 7  20150032.430 7 107902521.290 7  83924226.401 7  20150032.684 7
  21403711.258 6  21403719.383 7 114535596.852 6  89083242.350 7  21403718.969 7
  19218026.672 8  19218030.684 7 102587126.477 8  79790067.798 7  19218029.734 7
  21373853.719 6                 114335701.588 6                
 23  9 22 16 39 15.0000000  0 15G08G10G15G16G18G23G24G27G32R06R07R08
                                R21R22R23
  23891345.641 5  23891356.367 7 125549882.897 5  97831105.327 7  23891356.38346
  20768864.359 7  20768871.207 8 109141134.313 7  85045072.659 8  20768872.31649
  23006373.883 5  23006381.086 7 120899272.992 5  94207232.254 7  23006382.14847
  24436934.078 4                 128416885.852 4 100065130.44545  24436942.99645
  21269851.625 6  21269857.293 8 111773809.410 6  87096489.960 8  21269857.52346
  20663112.094 6  20663117.832 8 108585378.254 6  84612028.295 8  20663118.25847
  23989964.359 3  23989978.117 7 126068122.980 3  98234932.571 7  23989977.67646
  21225535.281 6  21225542.852 8 111540943.184 6  86915044.424 8  21225543.21148
  22923617.352 6  22923626.328 8 120464456.953 6  93868450.903 8  22923626.49247
  22297267.258 1                 118982439.261 1                
  19199718.773 7  19199723.344 7 102777604.793 7  79938148.157 7  19199723.430 7
  20137971.859 7  20137976.531 7 107837958.934 7  83874011.252 7  20137976.652 7
  21406934.500 6  21406941.879 7 114552843.388 6  89096656.281 7  21406942.168 7
  19212824.953 7  19212828.551 7 102559361.016 7  79768472.427 7  19212828.621 7
  21359517.633 6                 114259010.924 6                
 23  9 22 16 39 30.0000000  0 15G08G10G15G16G18G23G24G27G32R06R07R08
                                R21R22R23
  23878231.797 4  23878242.410 7 125480963.782 4  97777402.102 7  23878241.91847
  20762062.281 7  20762069.781 8 109105388.113 7  85017218.470 8  20762070.38349
  23010656.305 5  23010664.039 7 120921777.913 5  94224768.455 7  23010664.68846
  24439212.211 4                 128428863.292 4 100074463.49445  24439221.89145
  21269124.844 6  21269131.188 8 111769989.841 6  87093513.646 8  21269131.40246
  20661930.023 6  20661935.324 8 108579166.402 6  84607187.869 8  20661936.03547
  23980538.930 3  23980551.145 7 126018589.778 3  98196335.259 7  23980551.31646
  21217552.141 6  21217560.242 8 111498991.685 6  86882354.950 8  21217560.41848
  22909270.766 6  22909279.301 8 120389063.981 6  93809703.172 8  22909279.30547
  22303262.945 1                 119014434.056 1                
  19198036.891 7  19198041.379 7 102768600.946 7  79931145.151 7  19198041.465 7
  20125942.023 7  20125946.645 7 107773537.864 7  83823906.000 7  20125946.262 7
  21410176.445 6  21410184.605 7 114570192.188 6  89110149.730 7  21410184.195 7
  19207648.727 7  19207651.730 7 102531730.740 7  79746982.208 7  19207652.883 7
  21345188.414 6                 114182358.391 6                
 23  9 22 16 39 45.0000000  0 15G08G10G15G16G18G23G24G27G32R06R07R08
                                R21R22R23
  23865130.453 4  23865141.250 7 125412119.326 4  97723757.081 7  23865141.47746
  20755273.383 7  20755280.066 8 109069711.181 7  84989418.259 8  20755280.90649
  23014954.125 5  23014961.961 7 120944360.990 5  94242365.573 7  23014962.68847
  24441499.859 4                 128440880.340 4 100083827.31845  24441509.51245
  21268411.438 6  21268417.246 8 111766242.848 6  87090593.876 8  21268418.50846
  20660759.398 6  20660764.547 8 108573012.241 6  84602392.407 8  20660764.97747
  23971131.914 4  23971144.645 7 125969153.366 4  98157813.372 7  23971143.78146
  21209595.625 6  21209602.758 8 111457179.587 6  86849774.100 8  21209603.49648
  22894933.305 6  22894942.586 8 120313722.581 6  93750995.610 8  22894942.89147
  22309266.563 1                 119046466.952 1                
  19196384.430 7  19196390.516 7 102759758.262 7  79924267.492 7  19196390.016 7
  20113937.117 7  20113942.129 7 107709258.406 7  83773910.889 7  20113941.887 7
  21413436.922 6  21413444.051 7 114587642.918 6  89123722.474 7  21413445.160 7
  19202498.461 7  19202502.250 7 102504235.703 7  79725597.162 7  19202502.016 7
  21330866.758 6                 114105744.133 6                
 23  9 22 16 40  0.0000000  0 15G08G10G15G16G18G23G24G27G32R06R07R08
                                R21R22R23
  23852043.680 4  23852054.949 7 125343347.818 4  97670168.886 7  23852054.84847
  20748496.875 7  20748503.738 8 109034101.379 7  84961670.358 8  20748504.61749
  23019266.859 5  23019273.973 7 120967020.048 5  94260021.895 7  23019273.86347
  24443793.141 4                 128452934.511 4 100093220.11045  24443802.85245
  21267711.984 6  21267718.242 8 111762566.427 6  87087729.105 8  21267718.89846
  20659598.789 7  20659603.676 8 108566913.572 7  84597640.174 8  20659604.01247
  23961742.383 4  23961755.461 7 125919811.989 4  98119365.532 7  23961755.56346
  21201665.203 6  21201672.852 8 111415504.982 6  86817300.368 8  21201672.94148
  22880606.609 6  22880615.453 8 120238431.020 6  93692326.903 8  22880615.67647
  22315276.781 1                 119078535.568 1                
  19194762.109 8  19194767.988 7 102751073.876 8  79917512.951 7  19194767.254 7
  20101959.328 7  20101964.438 7 107645118.567 7  83724024.363 7  20101964.797 7
  21416716.844 6  21416724.523 7 114605193.421 6  89137372.795 7  21416724.813 7
  19197372.422 7  19197375.191 7 102476873.999 7  79704315.841 7  19197376.496 7
  21316550.758 6                 114029166.553 6                
 23  9 22 16 40 15.0000000  0 15G08G10G15G16G18G23G24G27G32R06R07R08
                                R21R22R23
  24138764.375 4  24138775.500 7 126850074.907 4  98844241.937 7  24138775.17646
  21041526.219 7  21041533.508 8 110573981.887 7  86161577.248 8  21041534.65249
  23323384.383 5  23323392.727 7 122565173.783 5  95505336.441 7  23323393.17247
  24745886.859 3                 130040445.466 3 101330241.65845  24745896.61745
  21566818.430 6  21566824.566 8 113334381.681 6  88312520.184 8  21566825.24246
  20958240.977 6  20958246.930 8 110136291.488 6  85820532.048 8  20958247.18047
  24252164.047 4  24252176.555 8 127445990.165 4  99308595.287 8  24252176.92247
  21493554.164 6  21493562.086 8 112949391.635 6  88012536.718 8  21493562.12948
  23166081.211 6  23166090.746 8 121738615.464 6  94861301.833 8  23166090.75447
  22621083.656 1                 120710387.959 1                
  19492962.250 7  19492968.168 7 104347361.997 7  81159070.366 7  19492967.434 7
  20389801.648 7  20389806.660 7 109186498.552 7  84922875.476 7  20389806.289 7
  21719807.836 6  21719815.594 7 116227093.021 6  90398850.198 7  21719815.766 7
  19492064.680 7  19492068.555 7 104049961.179 7  80927828.070 7  19492068.695 7
  21602035.813 6                 115556319.387 6                
 23  9 22 16 40 30.0000000  0 15G08G10G15G16G18G23G24G27G32R06R07R08
                                R21R22R23
  24125705.234 5  24125715.547 7 126781449.582 5  98790767.660 7  24125715.80947
  21034775.375 7  21034782.211 8 110538505.289 7  86133933.139 8  21034783.27049
  23327724.805 5  23327731.930 7 122587982.400 5  95523109.284 7  23327732.81347
  24748193.500 3                 130052571.912 3 101339690.71855  24748203.27045
  21566145.844 6  21566151.203 8 113330845.543 6  88309764.725 8  21566151.91846
  20957101.586 6  20957106.855 8 110130302.383 6  85815865.188 8  20957107.37546
  24242810.828 3  24242824.371 7 127396838.982 3  99270295.688 7  24242824.40247
  21485676.039 6  21485683.672 8 112907991.567 6  87980276.929 8  21485683.76248
  23151773.406 6  23151782.629 8 121663423.568 6  94802710.773 8  23151782.48847
  22627107.289 1                 120742525.430 1                
  19491399.211 8  19491404.402 7 104338993.020 8  81152561.126 7  19491403.902 7
  20377876.305 7  20377881.316 7 109122637.363 7  84873205.681 7  20377881.027 7
  21723124.328 6  21723131.762 7 116244841.543 6  90412654.537 7  21723132.055 7
  19486988.867 7  19486992.527 7 104022865.981 7  80906754.021 7  19486992.371 7
  21587734.125 6                 115479815.269 6                
 23  9 22 16 40 45.0000000  0 15G08G10G15G16G18G23G24G27G32R06R07R08
                                R21R22R23
  24112660.289 4  24112670.977 7 126712896.190 4  98737349.425 7  24112670.96546
  21028036.773 7  21028044.203 8 110503093.631 7  86106339.641 8  21028045.16449
  23332079.547 5  23332087.992 7 122610863.928 5  95540939.009 7  23332088.46947
  24750509.094 3                 130064732.583 3 101349166.41345  24750517.50445
  21565486.281 6  21565492.012 8 113327378.271 6  88307062.917 8  21565492.69147
  20955971.922 6  20955976.813 8 110124366.506 6  85811239.806 8  20955977.73046
  24233475.531 4  24233487.402 8 127347782.102 4  99232069.552 8  24233488.84447
  21477823.430 6  21477831.207 8 112866727.660 6  87948123.235 8  21477831.49648
  23137473.930 6  23137483.066 8 121588280.628 6  94744157.873 8  23137483.33247
  22633136.477 1                 120774695.356 1                
  19489865.297 7  19489869.828 7 104330779.822 7  81146173.082 7  19489869.328 7
  20365975.938 7  20365981.059 7 109058914.583 7  84823643.539 7  20365980.684 7
  21726459.344 6  21726466.879 7 116262687.530 6  90426534.705 7  21726467.051 7
  19481937.453 7  19481940.828 7 103995902.990 7  80885782.787 7  19481940.520 7
  21573438.984 6                 115403347.189 6                
 23  9 22 16 41  0.0000000  0 15G08G10G15G16G18G23G24G27G32R06R07R08
                                R21R22R23
  24099628.594 5  24099639.531 7 126644415.632 5  98683987.922 7  24099639.50447
  21021310.695 7  21021317.984 8 110467747.620 7  86078797.299 8  21021318.89549
  23336448.016 5  23336454.512 7 122633818.748 5  95558825.791 7  23336455.57446
  24752829.164 4                 130076927.475 4 101358668.91345  24752838.61745
  21564839.414 6  21564845.488 8 113323980.313 6  88304415.121 8  21564846.14546
  20954852.727 6  20954857.363 8 110118484.041 6  85806656.049 8  20954857.87946
  24224158.703 4  24224171.418 8 127298820.253 4  99193917.463 8  24224171.82447
  21469997.695 6  21470005.020 8 112825600.457 6  87916076.064 8  21470005.00048
  23123184.094 6  23123193.633 8 121513187.330 6  94685643.640 8  23123193.52748
  22639170.508 1                 120806897.749 1                
  19488359.328 7  19488365.109 7 104322722.583 7  81139906.318 7  19488364.371 7
  20354101.922 7  20354107.246 7 108995331.048 7  84774189.686 7  20354107.285 7
  21729811.766 6  21729820.625 7 116280631.174 6  90440490.816 7  21729820.914 7
  19476911.125 7  19476915.121 7 103969072.837 7  80864914.872 7  19476915.141 7
  21559151.398 6                 115326915.967 6                
 23  9 22 16 41 15.0000000  0 15G08G10G15G16G18G23G24G27G32R06R07R08
                                R21R22R23
  24086611.914 5  24086622.930 7 126576009.482 5  98630684.422 7  24086622.64847
  21014597.617 7  21014604.605 8 110432468.440 7  86051307.022 8  21014605.46149
  23340830.242 5  23340837.168 7 122656847.636 5  95576770.279 7  23340837.99246
  24755156.383 4                 130089157.718 4 101368198.97855  24755165.38745
  21564206.445 6  21564212.898 8 113320653.274 6  88301822.599 8  21564213.24646
  20953743.922 6  20953749.102 8 110112656.428 6  85802115.029 8  20953749.23847
  24214859.352 3  24214872.445 8 127249955.297 3  99155840.888 8  24214873.15646
  21462197.633 6  21462205.391 8 112784611.752 6  87884136.808 8  21462205.44548
  23108904.414 6  23108913.477 8 121438145.614 6  94627169.614 8  23108913.93847
  22645213.031 1                 120839133.737 1                
  19486883.922 7  19486889.184 7 104314822.535 7  81133761.827 7  19486888.801 7
  20342254.203 7  20342259.797 7 108931888.292 7  84724845.340 7  20342259.852 7
  21733184.055 6  21733192.262 7 116298673.886 6  90454523.967 7  21733192.316 7
  19471910.867 7  19471914.230 7 103942377.355 7  80844151.704 7  19471914.254 7
  21544869.680 6                 115250523.280 6                
 23  9 22 16 41 30.0000000  0 15G08G10G15G16G18G23G24G27G32R06R07R08
                                R21R22R23
  24073608.297 5  24073619.805 8 126507677.675 5  98577438.850 8  24073619.69546
  21007896.578 7  21007903.883 8 110397255.133 7  86023868.080 8  21007904.41849
  23345225.398 5  23345233.512 7 122679949.430 5  95594771.654 7  23345234.16446
  24757490.570 4                 130101422.162 4 101377755.61345  24757500.33645
  21563586.719 6  21563592.375 8 113317396.368 6  88299284.718 8  21563593.32846
  20952644.867 6  20952649.707 8 110106882.712 6  85797616.009 8  20952650.19147
  24205579.320 3  24205592.512 8 127201186.788 3  99117839.467 8  24205592.65246
  21454423.477 7  21454431.543 8 112743760.854 7  87852304.929 8  21454431.75448
  23094633.938 6  23094643.473 8 121363154.908 6  94568735.327 8  23094643.09448
  22651258.969 1                 120871402.103 1                
  19485437.031 7  19485442.961 7 104307078.310 7  81127738.519 7  19485442.109 7
  20330433.227 7  20330438.832 7 108868585.838 7  84675610.116 7  20330438.781 7
  21736574.258 6  21736582.879 7 116316814.902 6  90468633.592 7  21736582.699 7
  19466934.852 8  19466939.047 7 103915815.875 8  80823492.770 7  19466938.672 7
  21530595.797 6                 115174169.082 6                
 23  9 22 16 41 45.0000000  0 15G08G10G15G16G18G23G24G27G32R06R07R08
                                R21R22R23
  24060619.688 5  24060630.754 7 126439421.002 5  98524251.821 7  24060629.57447
  21001208.531 7  21001215.301 8 110362108.566 7  85996481.143 8  21001216.10249
  23349637.273 5  23349644.211 7 122703124.483 5  95612830.066 7  23349644.51246
  24759832.109 4                 130113720.965 4                
  21562980.508 6  21562986.145 8 113314210.213 6  88296801.974 8  21562987.00446
  20951556.922 6  20951561.926 8 110101163.303 6  85793159.308 8  20951562.32847
  24196317.117 3  24196329.855 7 127152515.649 3  99079913.919 7  24196330.32446
  21446676.508 6  21446684.012 8 112703048.490 6  87820581.002 8  21446684.89148
  23080374.148 6  23080382.914 8 121288216.191 6  94510341.560 8  23080383.09848
  22657312.797 1                 120903703.109 1                
  19484020.133 8  19484025.301 7 104299490.293 8  81121836.702 7  19484024.684 7
  20318638.117 7  20318644.191 7 108805424.282 7  84626484.491 7  20318643.434 7
  21739983.711 6  21739990.852 7 116335054.399 6  90482819.800 7  21739991.027 7
  19461984.297 7  19461988.063 7 103889389.234 7  80802938.703 7  19461988.125 7
  21516330.703 6                 115097854.192 6                
 23  9 22 16 42  0.0000000  0 14G08G10G15G16G18G23G24G27G32R07R08R21
                                R22R23
  24047645.984 5  24047656.844 8 126371241.463 5  98471124.900 8  24047656.31347
  20994532.703 7  20994540.070 8 110327030.352 7  85969147.462 8  20994540.94549
  23354059.305 4  23354068.309 7 122726374.359 4  95630946.775 7  23354069.02046
  24762178.289 3                 130126055.727 3                
  21562387.969 6  21562393.793 8 113311096.753 6  88294375.866 8  21562394.49247
  20950479.172 6  20950484.492 8 110095499.931 6  85788746.274 8  20950484.77346
  24187074.953 3  24187087.406 7 127103944.109 3  99042065.978 7  24187088.25046
  21438955.914 7  21438964.258 8 112662476.744 7  87788966.649 8  21438964.42248
  23066123.344 6  23066132.469 8 121213331.639 6  94451989.982 8  23066132.37548
  19482631.648 7  19482636.430 7 104292060.057 7  81116057.610 7  19482636.516 7
  20306870.586 7  20306875.594 7 108742406.002 7  84577470.282 7  20306874.875 7
  21743411.352 6  21743416.688 7 116353394.353 6  90497084.148 7  21743417.914 7
  19457059.367 7  19457063.020 7 103863099.575 7  80782491.187 7  19457062.930 7
  21502072.617 6                 115021580.980 6                
 23  9 22 16 42 15.0000000  0 15G08G10G15G16G18G23G24G27G32R06R07R08
                                R21R22R23
  24034686.828 5  24034697.000 8 126303141.207 5  98418059.755 8  24034696.89547
  20987871.469 7  20987878.641 8 110292021.883 7  85941868.126 8  20987879.21949
  23358499.516 5  23358506.969 7 122749700.010 5  95649122.501 7  23358507.68046
  24764532.313 3                 130138427.476 3                
  21561809.641 6  21561815.598 8 113308057.419 6  88292007.525 8  21561815.93847
  20949412.313 6  20949417.418 8 110089893.859 6  85784377.884 8  20949417.79746
  24177851.672 3  24177864.363 7 127055473.943 3  99004297.013 7  24177864.52746
  21431262.305 6  21431270.820 8 112622047.152 6  87757463.058 8  21431270.78148
  23051884.242 6  23051893.602 8 121138502.939 6  94393681.931 8  23051893.69148
  22669438.445 1                 120968408.20311                
  19481273.328 7  19481278.738 7 104284788.975 7  81110402.317 7  19481278.359 7
  20295129.164 7  20295134.027 7 108679532.413 7  84528568.614 7  20295133.719 7
  21746856.063 6  21746863.977 7 116371835.961 6  90511427.586 7  21746864.621 7
  19452160.648 8  19452163.984 7 103836948.509 8  80762151.453 7  19452164.133 7
  21487820.703 6                 114945351.213 6                
 23  9 22 16 42 30.0000000  0 15G08G10G15G16G18G23G24G27G32R06R07R08
                                R21R22R23
  24021742.758 5  24021753.141 8 126235120.044 5  98365056.237 8  24021753.03147
  20981222.734 7  20981229.691 8 110257082.726 7  85914642.814 8  20981230.42649
  23362953.484 5  23362959.383 7 122773100.924 5  95667356.899 7  23362960.62146
  24766893.875 3                 130150835.570 3                
  21561245.008 6  21561251.375 8 113305091.941 6  88289696.729 8  21561251.83646
  20948356.109 6  20948361.500 8 110084344.607 6  85780053.773 8  20948361.92247
  24168647.125 4  24168659.621 7 127007105.206 4  98966607.113 7  24168659.97346
  21423595.766 6  21423603.555 8 112581759.579 6  87726070.139 8  21423604.05148
  23037655.063 6  23037664.387 8 121063730.119 6  94335417.432 8  23037664.66848
  22675511.391 1                 121000812.723 1                
  19479944.719 7  19479949.668 7 104277675.934 7  81104869.931 7  19479950.340 7
  20283414.781 7  20283419.527 7 108616803.581 7  84479779.541 7  20283418.984 7
  21750322.141 6  21750328.656 7 116390378.777 6  90525849.721 7  21750329.652 7
  19447286.961 7  19447290.953 7 103810936.000 7  80741919.497 7  19447291.352 7
  21473578.672 6                 114869165.065 6                
 23  9 22 16 42 45.0000000  0 15G08G10G15G16G18G23G24G27G32R06R07R08
                                R21R22R23
  24008813.734 5  24008824.676 8 126167176.688 5  98312113.375 8  24008824.38347
  20974587.172 7  20974593.941 8 110222211.258 7  85887470.237 8  20974594.80149
  23367419.055 4  23367426.949 7 122796575.231 4  95685648.530 7  23367428.07046
  24769261.883 3                 130163278.226 3                
  21560694.789 6  21560701.195 8 113302198.894 6  88287442.375 8  21560701.46946
  20947310.836 6  20947315.883 8 110078850.608 6  85775772.719 8  20947316.31647
  24159461.250 4  24159474.332 7 126958836.694 4  98928995.304 7  24159475.18446
  21415956.563 6  21415963.945 8 112541612.694 6  87694786.839 8  21415964.38748
  23023436.469 6  23023446.219 8 120989012.034 6  94277195.576 8  23023445.92247
  22681589.172 1                 121033249.665 1                
  19478644.898 7  19478650.883 7 104270719.329 7  81099459.215 7  19478649.914 7
  20271727.430 7  20271732.363 7 108554218.389 7  84431102.181 7  20271732.371 7
  21753805.836 6  21753813.949 7 116409021.122 6  90540349.259 7  21753813.535 7
  19442439.508 7  19442443.371 7 103785060.722 7  80721794.257 7  19442443.688 7
  21459345.297 6                 114793021.604 6                
